% program   : RTKLIB ver.2.4.2
% inp file  : data\TSTb120L.obs
% inp file  : data\hksc1200.18n
% inp file  : data\hksc1200.18g
% obs start : 2018/04/30 11:49:16.0 GPST (week1999 128956.0s)
% obs end   : 2018/04/30 11:51:58.0 GPST (week1999 129118.0s)
% pos mode  : kinematic
% freqs     : L1+L2
% solution  : forward
% elev mask : 10.0 deg
% dynamics  : off
% tidecorr  : off
% ionos opt : broadcast
% tropo opt : saastamoinen
% ephemeris : broadcast
% navi sys  : gps glonass galileo qzss sbas
% amb res   : continuous
% amb glo   : on
% val thres : 3.0
% antenna1  :                       ( 0.0000  0.0000  0.0000)
% antenna2  :                       ( 0.0000  0.0000  0.0000)
% ref pos   : -2414266.9197,  5386768.9868,  2407460.0314
%
% (x/y/z-ecef=WGS84,Q=1:fix,2:float,3:sbas,4:dgps,5:single,6:ppp,ns=# of satellites)
%  GPST        ,     x-ecef(m),     y-ecef(m),     z-ecef(m),  Q, ns,  sdx(m),  sdy(m),  sdz(m), sdxy(m), sdyz(m), sdzx(m),age(s), ratio
1999,128956.000, -2418283.9624,  5386075.6972,  2405244.6381,  5, 15,  3.2839,  4.6099,  2.3160, -3.4434,  2.1682, -1.9124,  0.00,   0.0
1999,128957.000, -2418305.4246,  5386119.2578,  2405277.5721,  5, 15,  3.2837,  4.6095,  2.3160, -3.4431,  2.1680, -1.9123,  0.00,   0.0
1999,128958.000, -2418303.6198,  5386113.7446,  2405294.5492,  5, 15,  3.2835,  4.6090,  2.3160, -3.4428,  2.1679, -1.9121,  0.00,   0.0
1999,128959.000, -2418318.9173,  5386132.6682,  2405293.3240,  5, 15,  3.2833,  4.6086,  2.3160, -3.4424,  2.1677, -1.9120,  0.00,   0.0
1999,128960.000, -2418344.4532,  5386164.0816,  2405294.7411,  5, 15,  3.2830,  4.6082,  2.3160, -3.4421,  2.1676, -1.9119,  0.00,   0.0
1999,128961.000, -2418333.5744,  5386132.6273,  2405306.4835,  5, 15,  3.2828,  4.6078,  2.3160, -3.4418,  2.1675, -1.9118,  0.00,   0.0
1999,128962.000, -2418319.9469,  5386109.0872,  2405292.8743,  5, 15,  3.2826,  4.6074,  2.3160, -3.4415,  2.1674, -1.9116,  0.00,   0.0
1999,128963.000, -2418321.9070,  5386114.6288,  2405307.1864,  5, 15,  3.2824,  4.6069,  2.3160, -3.4411,  2.1672, -1.9115,  0.00,   0.0
1999,128964.000, -2418290.3420,  5386068.1121,  2405307.6520,  5, 15,  3.2822,  4.6065,  2.3160, -3.4408,  2.1671, -1.9114,  0.00,   0.0
1999,128965.000, -2418280.9628,  5386059.8046,  2405277.6027,  5, 15,  3.2819,  4.6061,  2.3160, -3.4405,  2.1670, -1.9112,  0.00,   0.0
1999,128966.000, -2418296.7562,  5386058.0815,  2405266.5098,  5, 15,  3.2817,  4.6057,  2.3160, -3.4402,  2.1668, -1.9111,  0.00,   0.0
1999,128967.000, -2418292.7162,  5386073.4694,  2405272.8583,  5, 15,  3.2815,  4.6053,  2.3160, -3.4399,  2.1667, -1.9110,  0.00,   0.0
1999,128968.000, -2418314.8825,  5386118.8267,  2405277.3335,  5, 15,  3.2813,  4.6048,  2.3160, -3.4395,  2.1666, -1.9109,  0.00,   0.0
1999,128969.000, -2418334.5673,  5386121.6640,  2405274.1256,  5, 15,  3.2810,  4.6044,  2.3160, -3.4392,  2.1664, -1.9107,  0.00,   0.0
1999,128970.000, -2418300.0227,  5386058.7493,  2405256.3211,  5, 15,  3.2808,  4.6040,  2.3160, -3.4389,  2.1663, -1.9106,  0.00,   0.0
1999,128971.000, -2418292.0341,  5386056.7326,  2405265.2441,  5, 15,  3.2806,  4.6036,  2.3159, -3.4385,  2.1662, -1.9105,  0.00,   0.0
1999,128972.000, -2418292.8781,  5386061.1172,  2405280.6562,  5, 15,  3.2804,  4.6031,  2.3159, -3.4382,  2.1660, -1.9103,  0.00,   0.0
1999,128973.000, -2402901.3064,  5236667.1244,  2357858.6494,  5, 15,  2.7683,  3.9549,  1.9558, -2.9696,  1.7878, -1.5722,  0.00,   0.0
1999,128974.000, -2418283.2995,  5386066.4741,  2405270.9740,  5, 15,  3.2799,  4.6023,  2.3159, -3.4376,  2.1658, -1.9101,  0.00,   0.0
1999,128975.000, -2418256.1369,  5386027.5232,  2405258.8136,  5, 15,  3.2797,  4.6019,  2.3159, -3.4372,  2.1656, -1.9099,  0.00,   0.0
1999,128976.000, -2418259.7482,  5386028.2652,  2405271.9177,  5, 15,  3.2795,  4.6015,  2.3159, -3.4369,  2.1655, -1.9098,  0.00,   0.0
1999,128977.000, -2418280.3832,  5386040.5641,  2405259.5937,  5, 15,  3.2793,  4.6010,  2.3159, -3.4366,  2.1654, -1.9097,  0.00,   0.0
1999,128978.000, -2418315.6697,  5386096.4291,  2405275.1490,  5, 15,  3.2790,  4.6006,  2.3159, -3.4362,  2.1652, -1.9095,  0.00,   0.0
1999,128979.000, -2418268.2817,  5386054.4105,  2405256.5341,  5, 15,  3.2788,  4.6002,  2.3159, -3.4359,  2.1651, -1.9094,  0.00,   0.0
1999,128980.000, -2418260.2798,  5386033.0920,  2405240.6112,  5, 15,  3.2786,  4.5998,  2.3159, -3.4356,  2.1650, -1.9093,  0.00,   0.0
1999,128981.000, -2418272.4092,  5386051.8265,  2405250.8893,  5, 15,  3.2784,  4.5993,  2.3159, -3.4353,  2.1648, -1.9091,  0.00,   0.0
1999,128982.000, -2418307.7044,  5386092.0869,  2405274.4093,  5, 15,  3.2781,  4.5989,  2.3159, -3.4349,  2.1647, -1.9090,  0.00,   0.0
1999,128983.000, -2418309.2651,  5386103.6172,  2405283.2184,  5, 15,  3.2779,  4.5985,  2.3159, -3.4346,  2.1645, -1.9089,  0.00,   0.0
1999,128984.000, -2418297.7385,  5386093.6678,  2405274.1261,  5, 15,  3.2777,  4.5981,  2.3159, -3.4343,  2.1644, -1.9087,  0.00,   0.0
1999,128985.000, -2418306.8888,  5386179.8866,  2405286.6069,  5, 15,  3.2775,  4.5976,  2.3159, -3.4339,  2.1643, -1.9086,  0.00,   0.0
1999,128986.000, -2418295.2217,  5386144.4049,  2405286.4824,  5, 15,  3.2772,  4.5972,  2.3159, -3.4336,  2.1641, -1.9085,  0.00,   0.0
1999,128987.000, -2418302.7402,  5386102.5074,  2405299.5367,  5, 15,  3.2770,  4.5968,  2.3159, -3.4333,  2.1640, -1.9083,  0.00,   0.0
1999,128988.000, -2418282.3137,  5386056.3275,  2405271.0315,  5, 15,  3.2768,  4.5964,  2.3159, -3.4330,  2.1639, -1.9082,  0.00,   0.0
1999,128989.000, -2418287.5665,  5386055.4493,  2405275.8446,  5, 15,  3.2766,  4.5959,  2.3159, -3.4326,  2.1637, -1.9081,  0.00,   0.0
1999,128990.000, -2418280.9324,  5386041.3192,  2405255.7999,  5, 15,  3.2763,  4.5955,  2.3159, -3.4323,  2.1636, -1.9079,  0.00,   0.0
1999,128991.000, -2418278.6938,  5386055.7742,  2405245.8271,  5, 15,  3.2761,  4.5951,  2.3158, -3.4320,  2.1635, -1.9078,  0.00,   0.0
1999,128992.000, -2418292.9914,  5386072.2041,  2405273.2635,  5, 15,  3.2759,  4.5946,  2.3158, -3.4316,  2.1633, -1.9077,  0.00,   0.0
1999,128993.000, -2418300.1942,  5386080.5496,  2405266.1637,  5, 15,  3.2757,  4.5942,  2.3158, -3.4313,  2.1632, -1.9075,  0.00,   0.0
1999,128994.000, -2418271.1642,  5386062.8817,  2405248.3149,  5, 15,  3.2754,  4.5938,  2.3158, -3.4310,  2.1630, -1.9074,  0.00,   0.0
1999,128995.000, -2418298.2764,  5386072.9502,  2405257.1610,  5, 15,  3.2752,  4.5934,  2.3158, -3.4306,  2.1629, -1.9073,  0.00,   0.0
1999,128996.000, -2418295.0727,  5386088.7295,  2405244.1715,  5, 15,  3.2750,  4.5929,  2.3158, -3.4303,  2.1628, -1.9071,  0.00,   0.0
1999,128997.000, -2418298.0572,  5386070.6879,  2405261.3986,  5, 15,  3.2747,  4.5925,  2.3158, -3.4300,  2.1626, -1.9070,  0.00,   0.0
1999,128998.000, -2418296.8965,  5386057.5893,  2405265.7085,  5, 15,  3.2745,  4.5921,  2.3158, -3.4296,  2.1625, -1.9069,  0.00,   0.0
1999,128999.000, -2418292.9791,  5386084.3816,  2405258.6967,  5, 15,  3.2743,  4.5916,  2.3158, -3.4293,  2.1623, -1.9067,  0.00,   0.0
1999,129000.000, -2418314.5776,  5386104.2144,  2405275.2272,  5, 15,  3.2741,  4.5912,  2.3158, -3.4290,  2.1622, -1.9066,  0.00,   0.0
1999,129001.000, -2418295.2004,  5386074.7406,  2405257.8768,  5, 15,  3.2738,  4.5908,  2.3158, -3.4286,  2.1621, -1.9065,  0.00,   0.0
1999,129002.000, -2418302.1844,  5386067.9603,  2405264.1533,  5, 15,  3.2736,  4.5904,  2.3158, -3.4283,  2.1619, -1.9063,  0.00,   0.0
1999,129003.000, -2418278.8258,  5386037.1367,  2405257.5989,  5, 15,  3.2734,  4.5899,  2.3158, -3.4280,  2.1618, -1.9062,  0.00,   0.0
1999,129004.000, -2418286.3660,  5386058.1628,  2405262.2358,  5, 15,  3.2731,  4.5895,  2.3158, -3.4276,  2.1617, -1.9061,  0.00,   0.0
1999,129005.000, -2418313.1998,  5386094.3616,  2405294.5116,  5, 15,  3.2729,  4.5891,  2.3158, -3.4273,  2.1615, -1.9059,  0.00,   0.0
1999,129006.000, -2418317.6314,  5386105.4361,  2405264.6767,  5, 15,  3.2727,  4.5886,  2.3158, -3.4269,  2.1614, -1.9058,  0.00,   0.0
1999,129007.000, -2418289.0382,  5386078.3942,  2405262.0293,  5, 15,  3.2725,  4.5882,  2.3158, -3.4266,  2.1612, -1.9056,  0.00,   0.0
1999,129008.000, -2418277.1857,  5386066.8776,  2405249.8810,  5, 15,  3.2722,  4.5878,  2.3158, -3.4263,  2.1611, -1.9055,  0.00,   0.0
1999,129009.000, -2418295.6054,  5386083.7540,  2405263.1715,  5, 15,  3.2720,  4.5873,  2.3158, -3.4259,  2.1610, -1.9054,  0.00,   0.0
1999,129010.000, -2418303.3213,  5386090.9316,  2405266.9702,  5, 15,  3.2718,  4.5869,  2.3157, -3.4256,  2.1608, -1.9052,  0.00,   0.0
1999,129011.000, -2418298.6030,  5386104.8157,  2405252.5737,  5, 15,  3.2715,  4.5865,  2.3157, -3.4253,  2.1607, -1.9051,  0.00,   0.0
1999,129012.000, -2418304.9534,  5386112.6136,  2405268.2738,  5, 15,  3.2713,  4.5860,  2.3157, -3.4249,  2.1605, -1.9050,  0.00,   0.0
1999,129013.000, -2418301.4077,  5386114.4250,  2405274.0933,  5, 15,  3.2711,  4.5856,  2.3157, -3.4246,  2.1604, -1.9048,  0.00,   0.0
1999,129014.000, -2418278.3694,  5386082.4274,  2405256.1625,  5, 15,  3.2708,  4.5852,  2.3157, -3.4243,  2.1603, -1.9047,  0.00,   0.0
1999,129015.000, -2418298.2500,  5386119.8967,  2405271.3449,  5, 15,  3.2706,  4.5847,  2.3157, -3.4239,  2.1601, -1.9046,  0.00,   0.0
1999,129016.000, -2418297.9715,  5386128.1620,  2405282.3418,  5, 15,  3.2704,  4.5843,  2.3157, -3.4236,  2.1600, -1.9044,  0.00,   0.0
1999,129017.000, -2418306.4989,  5386131.2428,  2405260.1950,  5, 15,  3.2702,  4.5839,  2.3157, -3.4232,  2.1598, -1.9043,  0.00,   0.0
1999,129018.000, -2418285.3870,  5386094.6269,  2405260.7309,  5, 15,  3.2699,  4.5834,  2.3157, -3.4229,  2.1597, -1.9041,  0.00,   0.0
1999,129019.000, -2418316.0878,  5386113.7989,  2405284.9909,  5, 15,  3.2697,  4.5830,  2.3157, -3.4226,  2.1595, -1.9040,  0.00,   0.0
1999,129020.000, -2418294.7803,  5386120.8074,  2405273.6841,  5, 15,  3.2695,  4.5826,  2.3157, -3.4222,  2.1594, -1.9039,  0.00,   0.0
1999,129021.000, -2418285.9038,  5386101.5089,  2405265.9253,  5, 15,  3.2692,  4.5821,  2.3157, -3.4219,  2.1593, -1.9037,  0.00,   0.0
1999,129022.000, -2418302.4791,  5386169.2197,  2405273.5852,  5, 15,  3.2690,  4.5817,  2.3157, -3.4215,  2.1591, -1.9036,  0.00,   0.0
1999,129023.000, -2418288.0244,  5386137.4111,  2405270.3349,  5, 15,  3.2688,  4.5813,  2.3157, -3.4212,  2.1590, -1.9034,  0.00,   0.0
1999,129024.000, -2418252.7734,  5386079.0912,  2405248.3565,  5, 15,  3.2685,  4.5809,  2.3157, -3.4209,  2.1588, -1.9033,  0.00,   0.0
1999,129025.000, -2418273.3559,  5386137.2168,  2405269.1868,  5, 15,  3.2683,  4.5804,  2.3157, -3.4205,  2.1587, -1.9032,  0.00,   0.0
1999,129026.000, -2418289.4833,  5386139.1099,  2405268.9496,  5, 15,  3.2681,  4.5800,  2.3157, -3.4202,  2.1585, -1.9030,  0.00,   0.0
1999,129027.000, -2418253.8674,  5386119.0614,  2405245.6775,  5, 15,  3.2678,  4.5795,  2.3157, -3.4199,  2.1584, -1.9029,  0.00,   0.0
1999,129028.000, -2418263.5703,  5386133.0633,  2405261.4445,  5, 15,  3.2676,  4.5791,  2.3157, -3.4195,  2.1583, -1.9028,  0.00,   0.0
1999,129029.000, -2418251.6431,  5386091.4589,  2405236.3996,  5, 15,  3.2674,  4.5787,  2.3157, -3.4192,  2.1581, -1.9026,  0.00,   0.0
1999,129030.000, -2418233.0954,  5386079.9346,  2405230.4523,  5, 15,  3.2671,  4.5782,  2.3156, -3.4188,  2.1580, -1.9025,  0.00,   0.0
1999,129031.000, -2418255.8067,  5386086.1076,  2405229.7024,  5, 15,  3.2669,  4.5778,  2.3156, -3.4185,  2.1578, -1.9023,  0.00,   0.0
1999,129032.000, -2418216.8004,  5386054.0632,  2405214.6764,  5, 15,  3.2667,  4.5774,  2.3156, -3.4182,  2.1577, -1.9022,  0.00,   0.0
1999,129033.000, -2418240.1412,  5386091.1599,  2405233.0006,  5, 15,  3.2664,  4.5769,  2.3156, -3.4178,  2.1576, -1.9021,  0.00,   0.0
1999,129034.000, -2418234.9647,  5386106.2568,  2405228.2746,  5, 15,  3.2662,  4.5765,  2.3156, -3.4175,  2.1574, -1.9019,  0.00,   0.0
1999,129035.000, -2418246.7426,  5386121.6996,  2405235.6794,  5, 15,  3.2660,  4.5761,  2.3156, -3.4171,  2.1573, -1.9018,  0.00,   0.0
1999,129036.000, -2418232.6243,  5386110.7614,  2405243.7728,  5, 15,  3.2657,  4.5756,  2.3156, -3.4168,  2.1571, -1.9016,  0.00,   0.0
1999,129037.000, -2418216.2083,  5386099.7605,  2405253.1277,  5, 15,  3.2655,  4.5752,  2.3156, -3.4164,  2.1570, -1.9015,  0.00,   0.0
1999,129038.000, -2418220.9874,  5386101.3106,  2405250.0565,  5, 15,  3.2653,  4.5747,  2.3156, -3.4161,  2.1568, -1.9014,  0.00,   0.0
1999,129039.000, -2418223.6701,  5386126.8185,  2405256.5718,  5, 15,  3.2650,  4.5743,  2.3156, -3.4158,  2.1567, -1.9012,  0.00,   0.0
1999,129040.000, -2418205.3642,  5386094.0647,  2405244.7517,  5, 15,  3.2648,  4.5739,  2.3156, -3.4154,  2.1565, -1.9011,  0.00,   0.0
1999,129041.000, -2418200.1555,  5386075.4553,  2405226.5687,  5, 15,  3.2646,  4.5734,  2.3156, -3.4151,  2.1564, -1.9009,  0.00,   0.0
1999,129042.000, -2418218.5984,  5386121.5612,  2405239.5664,  5, 15,  3.2643,  4.5730,  2.3156, -3.4147,  2.1562, -1.9008,  0.00,   0.0
1999,129043.000, -2418189.2811,  5386050.4215,  2405236.8744,  5, 15,  3.2641,  4.5726,  2.3156, -3.4144,  2.1561, -1.9007,  0.00,   0.0
1999,129044.000, -2418226.9057,  5386092.0018,  2405225.9544,  5, 15,  3.2639,  4.5721,  2.3156, -3.4140,  2.1560, -1.9005,  0.00,   0.0
1999,129045.000, -2418218.2371,  5386101.0070,  2405219.8463,  5, 15,  3.2636,  4.5717,  2.3156, -3.4137,  2.1558, -1.9004,  0.00,   0.0
1999,129046.000, -2418198.7911,  5386062.5922,  2405216.5747,  5, 15,  3.2634,  4.5712,  2.3156, -3.4133,  2.1557, -1.9002,  0.00,   0.0
1999,129047.000, -2418214.2300,  5386053.4766,  2405223.2158,  5, 15,  3.2632,  4.5708,  2.3156, -3.4130,  2.1555, -1.9001,  0.00,   0.0
1999,129048.000, -2418190.1261,  5386067.9856,  2405213.9614,  5, 15,  3.2629,  4.5704,  2.3156, -3.4127,  2.1554, -1.9000,  0.00,   0.0
1999,129049.000, -2418195.6066,  5386062.2306,  2405214.3206,  5, 15,  3.2627,  4.5699,  2.3155, -3.4123,  2.1552, -1.8998,  0.00,   0.0
1999,129050.000, -2418205.9479,  5386084.0414,  2405201.8311,  5, 15,  3.2624,  4.5695,  2.3155, -3.4120,  2.1551, -1.8997,  0.00,   0.0
1999,129051.000, -2418185.8898,  5386057.6879,  2405199.3024,  5, 15,  3.2622,  4.5690,  2.3155, -3.4116,  2.1549, -1.8995,  0.00,   0.0
1999,129052.000, -2418207.8459,  5386109.0868,  2405220.0441,  5, 15,  3.2620,  4.5686,  2.3155, -3.4113,  2.1548, -1.8994,  0.00,   0.0
1999,129053.000, -2418223.7445,  5386089.3137,  2405233.3078,  5, 15,  3.2617,  4.5681,  2.3155, -3.4109,  2.1546, -1.8992,  0.00,   0.0
1999,129054.000, -2418205.7153,  5386135.8858,  2405212.9727,  5, 15,  3.2615,  4.5677,  2.3155, -3.4106,  2.1545, -1.8991,  0.00,   0.0
1999,129055.000, -2418211.4493,  5386076.2718,  2405214.6272,  5, 15,  3.2613,  4.5673,  2.3155, -3.4102,  2.1543, -1.8990,  0.00,   0.0
1999,129056.000, -2418181.7063,  5386081.9736,  2405206.2561,  5, 15,  3.2610,  4.5668,  2.3155, -3.4099,  2.1542, -1.8988,  0.00,   0.0
1999,129057.000, -2418189.5150,  5386117.5450,  2405200.7780,  5, 15,  3.2608,  4.5664,  2.3155, -3.4095,  2.1541, -1.8987,  0.00,   0.0
1999,129058.000, -2418205.4814,  5386137.4564,  2405204.9557,  5, 15,  3.2605,  4.5659,  2.3155, -3.4092,  2.1539, -1.8985,  0.00,   0.0
1999,129059.000, -2418209.3546,  5386109.8246,  2405215.8390,  5, 15,  3.2603,  4.5655,  2.3155, -3.4088,  2.1538, -1.8984,  0.00,   0.0
1999,129060.000, -2418175.9517,  5386096.5806,  2405184.3114,  5, 15,  3.2601,  4.5651,  2.3155, -3.4085,  2.1536, -1.8982,  0.00,   0.0
1999,129061.000, -2418205.4633,  5386115.1021,  2405214.1750,  5, 15,  3.2598,  4.5646,  2.3155, -3.4081,  2.1535, -1.8981,  0.00,   0.0
1999,129062.000, -2418190.3324,  5386105.5015,  2405200.2407,  5, 15,  3.2596,  4.5642,  2.3155, -3.4078,  2.1533, -1.8980,  0.00,   0.0
1999,129063.000, -2418216.7837,  5386143.2023,  2405203.3512,  5, 15,  3.2593,  4.5637,  2.3155, -3.4074,  2.1532, -1.8978,  0.00,   0.0
1999,129064.000, -2418217.3078,  5386164.9892,  2405209.6228,  5, 15,  3.2591,  4.5633,  2.3155, -3.4071,  2.1530, -1.8977,  0.00,   0.0
1999,129065.000, -2418198.9142,  5386128.1262,  2405196.8728,  5, 15,  3.2589,  4.5628,  2.3155, -3.4067,  2.1529, -1.8975,  0.00,   0.0
1999,129066.000, -2418197.7225,  5386139.1347,  2405178.4359,  5, 15,  3.2586,  4.5624,  2.3155, -3.4064,  2.1527, -1.8974,  0.00,   0.0
1999,129067.000, -2418182.3253,  5386115.3209,  2405188.8378,  5, 15,  3.2584,  4.5620,  2.3154, -3.4060,  2.1526, -1.8972,  0.00,   0.0
1999,129068.000, -2418195.3400,  5386130.0521,  2405189.0168,  5, 15,  3.2581,  4.5615,  2.3154, -3.4057,  2.1524, -1.8971,  0.00,   0.0
1999,129069.000, -2418188.1487,  5386105.9609,  2405197.9051,  5, 15,  3.2579,  4.5611,  2.3154, -3.4053,  2.1523, -1.8969,  0.00,   0.0
1999,129070.000, -2418187.7981,  5386133.3000,  2405191.0242,  5, 15,  3.2577,  4.5606,  2.3154, -3.4050,  2.1521, -1.8968,  0.00,   0.0
1999,129071.000, -2418222.4611,  5386177.7800,  2405200.8279,  5, 15,  3.2574,  4.5602,  2.3154, -3.4046,  2.1520, -1.8967,  0.00,   0.0
1999,129072.000, -2418174.6322,  5386139.0687,  2405182.9712,  5, 15,  3.2572,  4.5597,  2.3154, -3.4043,  2.1518, -1.8965,  0.00,   0.0
1999,129073.000, -2418197.1225,  5386141.7299,  2405185.7053,  5, 15,  3.2569,  4.5593,  2.3154, -3.4039,  2.1517, -1.8964,  0.00,   0.0
1999,129074.000, -2418187.3106,  5386138.4907,  2405169.4390,  5, 15,  3.2567,  4.5588,  2.3154, -3.4036,  2.1515, -1.8962,  0.00,   0.0
1999,129075.000, -2418188.7197,  5386149.8230,  2405188.8985,  5, 15,  3.2565,  4.5584,  2.3154, -3.4032,  2.1514, -1.8961,  0.00,   0.0
1999,129076.000, -2418174.3396,  5386105.3810,  2405182.5329,  5, 15,  3.2562,  4.5579,  2.3154, -3.4029,  2.1512, -1.8959,  0.00,   0.0
1999,129077.000, -2418176.2185,  5386111.7977,  2405175.5233,  5, 15,  3.2560,  4.5575,  2.3154, -3.4025,  2.1511, -1.8958,  0.00,   0.0
1999,129078.000, -2418194.9986,  5386138.2707,  2405186.8375,  5, 15,  3.2557,  4.5570,  2.3154, -3.4022,  2.1509, -1.8956,  0.00,   0.0
1999,129079.000, -2418192.4690,  5386140.2797,  2405181.1149,  5, 15,  3.2555,  4.5566,  2.3154, -3.4018,  2.1508, -1.8955,  0.00,   0.0
1999,129080.000, -2418186.4738,  5386151.7628,  2405176.8185,  5, 15,  3.2553,  4.5562,  2.3154, -3.4015,  2.1506, -1.8953,  0.00,   0.0
1999,129081.000, -2418203.2574,  5386192.3289,  2405185.5654,  5, 15,  3.2550,  4.5557,  2.3154, -3.4011,  2.1505, -1.8952,  0.00,   0.0
1999,129082.000, -2418209.4504,  5386203.9216,  2405185.0535,  5, 15,  3.2548,  4.5553,  2.3154, -3.4007,  2.1503, -1.8951,  0.00,   0.0
1999,129083.000, -2418157.2307,  5386143.6955,  2405157.7990,  5, 15,  3.2545,  4.5548,  2.3154, -3.4004,  2.1502, -1.8949,  0.00,   0.0
1999,129084.000, -2418145.3064,  5386091.9913,  2405154.8487,  5, 15,  3.2543,  4.5544,  2.3154, -3.4001,  2.1500, -1.8948,  0.00,   0.0
1999,129085.000, -2418177.6702,  5386130.7563,  2405165.2506,  5, 15,  3.2540,  4.5539,  2.3153, -3.3997,  2.1498, -1.8946,  0.00,   0.0
1999,129086.000, -2418193.7676,  5386172.8345,  2405175.5245,  5, 15,  3.2538,  4.5535,  2.3153, -3.3993,  2.1497, -1.8945,  0.00,   0.0
1999,129087.000, -2418173.9402,  5386150.3383,  2405150.6548,  5, 15,  3.2536,  4.5530,  2.3153, -3.3990,  2.1495, -1.8943,  0.00,   0.0
1999,129088.000, -2418212.7786,  5386183.8551,  2405215.1352,  5, 15,  3.2533,  4.5526,  2.3153, -3.3986,  2.1494, -1.8942,  0.00,   0.0
1999,129089.000, -2418189.6435,  5386165.0681,  2405186.9045,  5, 15,  3.2531,  4.5521,  2.3153, -3.3983,  2.1492, -1.8940,  0.00,   0.0
1999,129090.000, -2418200.2478,  5386176.7709,  2405183.1151,  5, 15,  3.2528,  4.5517,  2.3153, -3.3979,  2.1491, -1.8939,  0.00,   0.0
1999,129091.000, -2418217.7815,  5386186.1262,  2405203.7790,  5, 15,  3.2526,  4.5512,  2.3153, -3.3975,  2.1489, -1.8937,  0.00,   0.0
1999,129092.000, -2418212.7598,  5386168.5840,  2405203.3305,  5, 15,  3.2523,  4.5508,  2.3153, -3.3972,  2.1488, -1.8936,  0.00,   0.0
1999,129093.000, -2418216.4506,  5386178.8259,  2405207.9525,  5, 15,  3.2521,  4.5503,  2.3153, -3.3968,  2.1486, -1.8934,  0.00,   0.0
1999,129094.000, -2418208.5102,  5386180.4336,  2405199.3470,  5, 15,  3.2518,  4.5499,  2.3153, -3.3965,  2.1485, -1.8933,  0.00,   0.0
1999,129095.000, -2418214.5970,  5386184.3166,  2405194.2126,  5, 15,  3.2516,  4.5494,  2.3153, -3.3961,  2.1483, -1.8931,  0.00,   0.0
1999,129096.000, -2418236.3053,  5386185.0679,  2405208.2222,  5, 15,  3.2514,  4.5489,  2.3153, -3.3958,  2.1481, -1.8930,  0.00,   0.0
1999,129097.000, -2418209.2472,  5386178.4020,  2405201.6161,  5, 15,  3.2511,  4.5485,  2.3153, -3.3954,  2.1480, -1.8928,  0.00,   0.0
1999,129098.000, -2418225.5242,  5386200.6925,  2405214.6304,  5, 15,  3.2509,  4.5480,  2.3153, -3.3950,  2.1478, -1.8927,  0.00,   0.0
1999,129099.000, -2418231.8239,  5386199.0578,  2405203.5418,  5, 15,  3.2506,  4.5476,  2.3153, -3.3947,  2.1477, -1.8925,  0.00,   0.0
1999,129100.000, -2418208.4655,  5386200.4660,  2405190.6735,  5, 15,  3.2504,  4.5471,  2.3152, -3.3943,  2.1475, -1.8924,  0.00,   0.0
1999,129101.000, -2418215.7319,  5386212.7778,  2405197.7157,  5, 15,  3.2501,  4.5467,  2.3152, -3.3940,  2.1474, -1.8922,  0.00,   0.0
1999,129102.000, -2418243.1590,  5386223.8027,  2405216.5414,  5, 15,  3.2499,  4.5462,  2.3152, -3.3936,  2.1472, -1.8921,  0.00,   0.0
1999,129103.000, -2418251.6638,  5386211.1923,  2405206.7177,  5, 15,  3.2496,  4.5458,  2.3152, -3.3932,  2.1471, -1.8919,  0.00,   0.0
1999,129104.000, -2418232.7542,  5386192.5539,  2405201.5270,  5, 15,  3.2494,  4.5453,  2.3152, -3.3929,  2.1469, -1.8918,  0.00,   0.0
1999,129105.000, -2418217.3427,  5386187.2603,  2405191.3262,  5, 15,  3.2492,  4.5449,  2.3152, -3.3925,  2.1468, -1.8917,  0.00,   0.0
1999,129106.000, -2418205.7022,  5386192.8318,  2405207.0128,  5, 15,  3.2489,  4.5444,  2.3152, -3.3922,  2.1466, -1.8915,  0.00,   0.0
1999,129107.000, -2418229.3371,  5386230.9195,  2405199.6139,  5, 15,  3.2487,  4.5440,  2.3152, -3.3918,  2.1464, -1.8914,  0.00,   0.0
1999,129108.000, -2418233.2261,  5386217.8155,  2405202.7586,  5, 15,  3.2484,  4.5435,  2.3152, -3.3914,  2.1463, -1.8912,  0.00,   0.0
1999,129109.000, -2418232.9021,  5386219.1973,  2405205.4209,  5, 15,  3.2482,  4.5431,  2.3152, -3.3911,  2.1461, -1.8911,  0.00,   0.0
1999,129110.000, -2418209.5721,  5386167.5991,  2405199.8813,  5, 15,  3.2479,  4.5426,  2.3152, -3.3907,  2.1460, -1.8909,  0.00,   0.0
1999,129111.000, -2418212.0165,  5386159.5578,  2405197.9049,  5, 15,  3.2477,  4.5422,  2.3152, -3.3904,  2.1458, -1.8908,  0.00,   0.0
1999,129112.000, -2418231.5038,  5386182.0999,  2405201.3274,  5, 15,  3.2474,  4.5417,  2.3152, -3.3900,  2.1457, -1.8906,  0.00,   0.0
1999,129113.000, -2418247.7033,  5386236.8138,  2405195.2148,  5, 15,  3.2472,  4.5412,  2.3152, -3.3896,  2.1455, -1.8905,  0.00,   0.0
1999,129114.000, -2418226.0238,  5386228.5629,  2405197.4104,  5, 15,  3.2469,  4.5408,  2.3152, -3.3893,  2.1453, -1.8903,  0.00,   0.0
1999,129115.000, -2418245.7731,  5386219.0332,  2405213.7043,  5, 15,  3.2467,  4.5403,  2.3152, -3.3889,  2.1452, -1.8901,  0.00,   0.0
1999,129116.000, -2418238.4400,  5386210.7178,  2405195.4714,  5, 15,  3.2464,  4.5399,  2.3151, -3.3886,  2.1450, -1.8900,  0.00,   0.0
1999,129117.000, -2418239.6267,  5386243.3650,  2405211.6481,  5, 15,  3.2462,  4.5394,  2.3151, -3.3882,  2.1449, -1.8898,  0.00,   0.0
1999,129118.000, -2418231.7464,  5386205.5523,  2405197.5707,  5, 15,  3.2459,  4.5390,  2.3151, -3.3878,  2.1447, -1.8897,  0.00,   0.0
