     3.03           OBSERVATION DATA    M: Mixed            RINEX VERSION / TYPE
Geo++ RINEX Logger  Geo++               20180430 114857 UTC PGM / RUN BY / DATE
************************************************************COMMENT
This file was generated by the Geo++ RINEX Logger App       COMMENT
for Android devices (Version 1.2.4). If you encounter       COMMENT
any issues, please send an email to android@geopp.de        COMMENT
Note: Tracking signals and phase shifts by best knowledge   COMMENT
************************************************************COMMENT
Geo++                                                       MARKER NAME
GEODETIC                                                    MARKER TYPE
RINEX Logger user   Geo++                                   OBSERVER / AGENCY
7EX0217A17003237    HUAWEI              VTR-L29             REC # / TYPE / VERS
7EX0217A17003237    VTR-L29                                 ANT # / TYPE
 -2418297.2740  5386011.4019  2405171.4839                  APPROX POSITION XYZ
        0.0000        0.0000        0.0000                  ANTENNA: DELTA H/E/N
G    4 C1C L1C D1C S1C                                      SYS / # / OBS TYPES
R    4 C1C L1C D1C S1C                                      SYS / # / OBS TYPES
E    4 C1B L1B D1B S1B                                      SYS / # / OBS TYPES
C    4 C2I L2I D2I S2I                                      SYS / # / OBS TYPES
J    4 C1C L1C D1C S1C                                      SYS / # / OBS TYPES
  2018     4    30    11    49   15.9997345     GPS         TIME OF FIRST OBS
G                                                           SYS / PHASE SHIFTS
R                                                           SYS / PHASE SHIFTS
E                                                           SYS / PHASE SHIFTS
C                                                           SYS / PHASE SHIFTS
J                                                           SYS / PHASE SHIFTS
                                                            END OF HEADER
> 2018  4 30 11 49 15.9997345  0 18
G02  23496381.693    -3412636.9430        914.629          25.665  
G03  23806210.903     3055965.0651      -3434.277          22.921  
G06  21164574.070      128946.2600       -254.029          38.706  
G09  23735292.299    -1093750.1110       1612.363          35.386  
G17  21429853.821     -683531.9300        702.551          34.050  
G19  21491268.404     -945729.4641       1092.866          22.384  
G23  24812098.841     -270013.6901        303.912          21.396  
G28  20982805.106     1487772.5240      -2376.273          25.157  
G30  25350603.143      944851.7231      -2354.144           7.000  
R02  21146629.693     1073165.6531      -1541.776          22.446  
R18  21561985.248     -344287.9560        538.678          27.046  
R16  21615840.565       98459.0691       -408.416          23.320  
R15  21914614.628     3016436.3980      -3756.482          26.738  
R17  21679874.435      713822.6330       -798.815          24.429  
R03  20416140.100    -1586563.8540       2173.608          35.892  
R04  23376909.602    -1658374.6310       3964.159          26.451  
J01  37782948.409      610468.2720       -943.536          28.025  
E010034477460.580      918338.1591      -1527.290          19.475  
> 2018  4 30 11 49 16.9997345  0 18
G02  23496220.105    -3413551.1370        914.297          34.945  
G03  23806846.463     3059399.4531      -3435.041          23.638  
G06  21164624.735      129200.0680       -253.800          35.276  
G09  23734994.905    -1095363.0430       1612.887          33.372  
G17  21429708.422     -684234.7060        702.605          36.595  
G19  21491018.677     -946821.3631       1087.254          20.846  
G23  24812067.963     -270318.3501        304.993          27.742  
G28  20983215.222     1490148.5550      -2376.663          26.609  
G30  25351052.232      947205.6371      -2353.168           7.000  
R02  21146969.658     1074708.0271      -1546.314          20.840  
R18  21561863.233     -344826.8561        538.398          25.855  
R16  21615932.601       98870.4331       -410.829          24.716  
R15  21915308.348     3020192.6220      -3756.717          33.156  
R17  21680035.124      714620.1421       -796.256          25.261  
R03  20415728.185    -1588737.8411       2171.490          33.636  
R04  23376268.346    -1662342.7821       3966.801          26.495  
J01  37783135.480      611411.8580       -943.519          30.392  
E010334270221.670      919860.8821      -1523.345          20.012  
> 2018  4 30 11 49 17.9997345  0 18
G02  23496035.433    -3414465.1490        914.211          37.409  
G03  23807507.506     3062834.8841      -3434.898          23.987  
G06  21164680.197      129454.2380       -254.262          34.031  
G09  23734702.008    -1096976.0360       1612.540          28.970  
G17  21429595.400     -684936.9900        703.025          35.830  
G19  21490794.433     -947913.4801       1093.347          19.453  
G23  24812012.801     -270622.5240        304.252          29.905  
G28  20983664.311     1492525.3970      -2377.454          26.697  
G30  25351499.522      949559.1961      -2354.144           7.000  
R02  21147229.877     1076254.2631      -1545.375          18.695  
R18  21561725.328     -345364.9170        536.178          26.507  
R16  21616015.644       99282.6840       -412.720          24.204  
R15  21916043.439     3023949.1720      -3756.545          34.668  
R17  21680150.544      715418.0631       -797.772          25.866  
R03  20415302.480    -1590910.8820       2174.047          32.336  
R04  23375581.222    -1666311.8971       3965.141          26.929  
J01  37783319.552      612355.7330       -943.412          31.310  
E010634062973.766      921379.8741      -1525.965          20.875  
> 2018  4 30 11 49 18.9997345  0 18
G02  23495863.952    -3415379.1320        913.941          38.358  
G03  23808170.646     3066270.6170      -3435.943          23.869  
G06  21164721.268      129708.5290       -254.346          35.945  
G09  23734351.850    -1098587.9891       1610.432          27.252  
G17  21429443.405     -685639.2500        702.032          35.930  
G19  21490580.681     -949004.9811       1093.462          19.848  
G23  24811957.040     -270926.4090        303.978          30.458  
G28  20984130.789     1494902.6991      -2376.261          24.824  
G30  25351947.112      951912.1491      -2353.168           7.000  
R02  21147495.194     1077802.6061      -1546.181          18.729  
R18  21561617.403     -345901.9841        538.822          23.754  
R16  21616084.296       99696.0971       -410.804          21.650  
R15  21916742.855     3027705.9820      -3756.715          32.666  
R17  21680337.315      716215.6770       -797.554          25.927  
R03  20414893.263    -1593083.1270       2171.318          34.657  
R04  23374855.424    -1670276.7840       3965.018          28.552  
J01  37783496.730      613299.7020       -944.239          32.271  
E010933855719.570      922891.4141      -1529.404          22.761  
> 2018  4 30 11 49 19.9997345  0 18
G02  23495688.273    -3416292.8830        913.642          39.249  
G03  23808856.572     3069706.5501      -3436.277          24.789  
G06  21164768.935      129963.0070       -254.328          36.321  
G09  23734066.747    -1100200.5800       1612.600          29.476  
G17  21429313.595     -686341.4990        702.031          36.436  
G19  21490367.828     -950092.4271       1092.511          17.312  
G23  24811867.701     -271229.9520        303.304          30.382  
G28  20984564.888     1497280.6101      -2374.658          22.027  
G30  25352395.902      954265.4831      -2353.168           7.000  
R02  21147774.300     1079346.9561      -1546.139          19.245  
R18  21561621.600     -346441.4371        538.533          21.284  
R16  21616184.727      100112.4091       -408.697          18.059  
R15  21917445.568     3031463.0810      -3757.511          32.637  
R17  21680455.733      717013.3980       -797.887          26.563  
R03  20414480.149    -1595254.7820       2171.053          33.759  
R04  23374138.621    -1674241.7310       3964.788          28.533  
J01  37783677.804      614243.6820       -944.106          32.167  
E011233648472.266      924420.5971      -1519.879          21.870  
> 2018  4 30 11 49 20.9997345  0 18
G02  23495504.501    -3417206.5090        913.623          39.035  
G03  23809479.241     3073142.6931      -3438.365          23.728  
G06  21164815.103      130217.7690       -255.039          36.487  
G09  23733781.045    -1101813.0040       1612.219          31.546  
G17  21429170.894     -687043.4830        701.762          38.505  
G19  21490137.587     -951184.0171       1091.243          17.149  
G23  24811797.850     -271533.3370        303.153          30.435  
G28  20985080.831     1499658.9091      -2376.157          21.992  
G30  25352845.590      956617.6851      -2353.168           7.000  
R02  21148061.202     1080888.4671      -1546.924          16.988  
R18  21561596.417     -346977.7241        539.808          18.218  
R16  21616335.223      100530.0851       -408.625          12.727  
R15  21918132.393     3035220.3620      -3757.963          31.462  
R17  21680592.438      717810.9440       -797.579          28.894  
R03  20414107.208    -1597425.8990       2170.573          32.113  
R04  23373424.515    -1678206.8270       3965.055          28.184  
J01  37783854.682      615187.6720       -944.201          33.475  
E011533441200.680      925959.3111      -1523.974          20.755  
> 2018  4 30 11 49 21.9997345  0 18
G02  23495325.525    -3418119.8850        913.377          39.133  
G03  23810153.174     3076579.0961      -3434.376          23.410  
G06  21164871.464      130472.7130       -255.315          36.082  
G09  23733475.257    -1103425.4810       1612.921          30.605  
G17  21429036.886     -687745.3640        701.824          37.287  
G19  21489946.919     -952279.9601       1090.561          16.503  
G23  24811725.000     -271836.3640        303.032          31.586  
G28  20985566.495     1502037.9291      -2379.933          21.536  
G30  25353295.579      958970.0291      -2352.193           7.000  
R02  21148330.116     1082434.6931      -1547.715          15.157  
R18  21561491.490     -347516.3681        539.522          16.649  
R16  21616418.265      100945.2801       -410.927          16.569  
R15  21918815.320     3038977.8020      -3757.676          31.208  
R17  21680736.039      718608.6520       -797.620          31.193  
R03  20413722.574    -1599596.3430       2170.096          31.948  
R04  23372646.254    -1682171.8600       3965.122          26.348  
J01  37784041.752      616131.6940       -943.868          34.173  
E011833233905.700      927483.6361      -1531.118          20.087  
> 2018  4 30 11 49 22.9997345  0 18
G02  23495154.943    -3419033.1510        913.136          38.645  
G03  23810801.925     3080015.8581      -3436.035          24.303  
G06  21164918.232      130727.8470       -255.151          37.005  
G09  23733174.565    -1105037.6350       1612.429          29.056  
G17  21428900.181     -688447.2260        701.962          36.376  
G19  21489731.968     -953371.2771       1090.067          14.460  
G23  24811675.834     -272139.0300        302.349          31.982  
G28  20986030.873     1504417.4761      -2381.565          21.457  
G30  25353744.068      961322.2161      -2352.193           7.000  
R02  21148611.321     1083986.1971      -1546.276          12.596  
R18  21561361.980     -348061.8681        540.011          15.757  
R16  21616483.020      101361.5381       -413.120          19.749  
R15  21919534.222     3042735.6080      -3757.985          32.137  
R17  21680903.623      719406.3620       -797.697          32.897  
R03  20413299.267    -1601766.1570       2169.496          33.093  
R04  23371932.148    -1686136.9050       3964.540          27.054  
J01  37784221.028      617075.8100       -944.371          34.151  
E012133026667.990      929008.9871      -1540.429          21.105  
> 2018  4 30 11 49 23.9997345  0 18
G02  23494978.665    -3419946.1210        912.924          38.447  
G03  23811432.388     3083453.0880      -3437.374          23.166  
G06  21164968.297      130983.3080       -255.536          35.400  
G09  23732896.358    -1106649.6740       1612.449          28.579  
G17  21428766.474     -689148.7730        701.926          37.189  
G19  21489546.097     -954462.4801       1089.809          24.871  
G23  24811589.794     -272441.3820        302.136          30.494  
G28  20986488.356     1506797.5181      -2380.957          22.256  
G30  25354196.155      963673.8091      -2352.193           7.000  
R02  21148979.766     1085536.2721      -1547.614          14.299  
R18  21561152.425     -348608.2921        540.943          18.966  
R16  21616560.067      101778.5131       -417.395          22.899  
R15  21920227.942     3046493.7030      -3757.991          31.581  
R17  21681060.114      720204.1630       -797.507          34.193  
R03  20412885.553    -1603935.3150       2168.824          35.213  
R04  23371222.240    -1690101.9310       3964.967          27.335  
J01  37784390.111      618020.0680       -944.448          33.694  
E012432819414.400      930498.4571      -1519.696          21.274  
> 2018  4 30 11 49 24.9997345  0 18
G02  23494805.984    -3420858.9570        912.657          38.409  
G03  23812081.739     3086890.2791      -3434.692          22.479  
G06  21165020.461      131238.9170       -255.853          36.783  
G09  23732575.280    -1108261.6920       1611.916          30.292  
G17  21428626.770     -689850.2580        701.412          35.492  
G19  21489389.905     -955550.5691       1089.934          21.584  
G23  24811541.227     -272743.3800        301.459          30.828  
G28  20986929.051     1509177.8181      -2380.360          23.602  
G30  25354646.144      966024.8111      -2351.217           7.000  
R02  21149366.498     1087034.5281      -1547.050          20.036  
R18  21561065.185     -349147.3001        537.361          23.522  
R16  21616636.514      102196.2880       -418.317          24.183  
R15  21920939.649     3050252.0230      -3758.867          32.438  
R17  21681217.805      721001.9530       -797.943          33.714  
R03  20412484.131    -1606103.8490       2167.711          35.466  
R04  23370436.483    -1694067.0630       3964.907          27.768  
J01  37784574.184      618964.3340       -944.381          33.260  
E012732612146.410      932019.7001      -1520.919          22.068  
> 2018  4 30 11 49 25.9997345  0 18
G02  23494630.606    -3421771.5020        912.710          37.890  
G03  23812736.186     3090328.0861      -3436.435          23.166  
G06  21165072.026      131494.9100       -256.203          36.675  
G09  23732255.401    -1109873.4640       1611.910          30.886  
G17  21428499.658     -690551.4720        701.594          35.454  
G19  21489216.025     -956636.2651       1090.143          18.307  
G23  24811461.782     -273044.9890        301.499          29.461  
G28  20987363.750     1511558.9320      -2381.235          25.632  
G30  25355097.032      968376.1941      -2351.217           7.000  
R02  21149621.022     1088584.5121      -1547.205          20.621  
R18  21561011.522     -349686.6901        534.682          24.371  
R16  21616711.762      102614.9061       -418.583          22.513  
R15  21921648.059     3054010.6370      -3758.654          32.136  
R17  21681353.012      721799.7610       -797.770          34.774  
R03  20412065.621    -1608271.6880       2167.477          33.644  
R04  23369730.172    -1698032.1780       3965.210          27.057  
J01  37784751.661      619908.7500       -944.425          33.276  
E013032404912.890      933542.5771      -1522.316          23.301  
> 2018  4 30 11 49 26.9997345  0 18
G02  23494462.122    -3422683.8770        912.044          37.924  
G03  23813410.419     3093766.0490      -3438.454          24.113  
G06  21165107.401      131751.0710       -256.556          35.587  
G09  23731959.506    -1111485.2000       1611.649          30.677  
G17  21428357.257     -691252.5980        700.609          35.734  
G19  21488973.493     -957721.3081       1090.355          19.427  
G23  24811390.432     -273346.2740        301.067          29.055  
G28  20987847.915     1513940.5491      -2382.376          24.829  
G30  25355546.720      970726.4441      -2351.217           7.000  
R02  21149951.693     1090134.2601      -1550.344          23.128  
R18  21560923.084     -350225.9641        540.499          24.022  
R16  21616759.129      103032.9871       -413.284          19.195  
R15  21922334.883     3057769.5740      -3759.249          32.170  
R17  21681513.401      722597.6310       -798.179          33.938  
R03  20411646.211    -1610438.9120       2166.142          32.310  
R04  23368972.597    -1701997.3330       3965.137          26.828  
J01  37784926.140      620853.2350       -944.527          33.405  
E013332197663.190      935069.7951      -1523.372          23.698  
> 2018  4 30 11 49 27.9997345  0 18
G02  23494279.549    -3423595.9450        911.882          36.192  
G03  23814056.472     3097204.3130      -3438.237          25.451  
G06  21165153.869      132007.5550       -256.772          36.064  
G09  23731657.915    -1113096.7180       1611.565          30.041  
G17  21428228.946     -691953.5650        700.954          35.946  
G19  21488736.957     -958811.1081       1090.320          18.247  
G23  24811354.457     -273647.1730        300.448          27.801  
G28  20988253.534     1516322.6701      -2382.366          24.405  
G30  25355996.709      973076.8371      -2350.242           7.000  
R02  21150249.387     1091684.8310      -1551.077          24.384  
R18  21560871.519     -350765.6671        545.291          22.832  
R16  21616845.169      103449.6501       -415.431          17.948  
R15  21923043.593     3061528.7910      -3759.497          32.015  
R17  21681652.205      723395.5720       -798.066          33.741  
R03  20411187.229    -1612605.3390       2165.658          30.906  
R04  23368218.619    -1705962.4840       3964.927          25.386  
J01  37785112.011      621797.8920       -944.748          32.981  
E013631990419.190      936602.4601      -1519.091          23.720  
> 2018  4 30 11 49 28.9997345  0 18
G02  23494112.864    -3424507.8330        911.704          36.327  
G03  23814722.011     3100642.9120      -3438.756          24.628  
G06  21165212.029      132264.3330       -256.984          36.023  
G09  23731317.651    -1114708.1180       1611.418          30.438  
G17  21428097.037     -692654.3290        700.780          36.215  
G19  21488511.513     -959901.6071       1089.971          19.249  
G23  24811267.517     -273947.7530        300.730          26.008  
G28  20988683.737     1518705.3130      -2383.306          24.709  
G30  25356446.697      975427.0731      -2350.242           7.000  
R02  21150501.512     1093236.1860      -1551.571          24.115  
R18  21560755.500     -351303.4711        540.222          22.280  
R16  21616940.803      103870.1001       -416.732          18.733  
R15  21923746.606     3065288.2800      -3759.815          31.890  
R17  21681818.889      724193.5340       -798.249          34.359  
R03  20410787.906    -1614771.0610       2165.151          30.796  
R04  23367509.610    -1709927.6200       3965.032          25.536  
J01  37785279.295      622742.5840       -944.441          32.341  
E013931783158.990      938130.5481      -1524.074          24.217  
> 2018  4 30 11 49 29.9997345  0 18
G02  23493938.984    -3425419.4220        911.390          36.405  
G03  23815354.273     3104081.9930      -3439.217          25.209  
G06  21165263.593      132521.4640       -257.427          35.286  
G09  23731007.665    -1116319.1590       1610.590          30.738  
G17  21427967.527     -693354.8400        700.344          37.118  
G19  21488424.873     -960992.5841       1089.093          17.546  
G23  24811250.429     -274247.8630        300.309          24.246  
G28  20989179.893     1521087.3961      -2386.368          22.106  
G30  25356895.187      977776.7141      -2350.242           7.000  
R02  21150706.571     1094788.5520      -1552.860          24.555  
R18  21560603.805     -351842.5571        537.990          23.207  
R16  21616960.889      104292.7031       -419.150          17.794  
R15  21924465.508     3069048.1170      -3760.196          31.724  
R17  21681947.800      724991.5920       -798.224          35.025  
R03  20410427.555    -1616936.0570       2164.823          31.335  
R04  23366729.850    -1713892.6130       3965.317          25.840  
J01  37785460.070      623687.5620       -944.894          31.893  
E014231575892.195      939659.3471      -1531.470          24.672  
> 2018  4 30 11 49 30.9997345  0 18
G02  23493766.004    -3426330.7630        911.145          36.970  
G03  23816011.718     3107521.3120      -3439.282          25.969  
G06  21165297.769      132778.7790       -257.351          33.863  
G09  23730715.068    -1117930.3150       1610.895          29.618  
G17  21427838.016     -694055.1280        700.168          37.190  
G19  21488248.895     -962081.9311       1088.016          17.461  
G23  24811203.062     -274547.5541        296.004          23.128  
G28  20989637.077     1523471.4851      -2383.515          22.191  
G30  25357343.676      980125.7651      -2349.266           7.000  
R02  21150972.486     1096341.6821      -1551.454          23.784  
R18  21560496.479     -352382.1861        536.362          22.368  
R16  21617008.556      104715.6721       -420.141          19.778  
R15  21925174.817     3072808.1760      -3760.192          31.240  
R17  21682092.000      725789.6390       -798.262          35.415  
R03  20410048.917    -1619100.3550       2163.890          34.113  
R04  23366039.727    -1717857.7390       3965.099          25.411  
J01  37785641.745      624632.5920       -945.150          32.319  
E014531368666.780      941188.3431      -1529.580          25.632  
> 2018  4 30 11 49 31.9997345  0 18
G02  23493592.424    -3427242.0110        911.242          37.477  
G03  23816675.159     3110960.8840      -3439.812          26.925  
G06  21165364.023      133036.4010       -257.681          32.295  
G09  23730400.885    -1119541.3090       1610.972          30.194  
G17  21427705.508     -694755.3610        700.257          36.926  
G19  21487904.433     -963171.7261       1088.782          19.190  
G23  24811116.122     -274846.9711        296.069          22.769  
G28  20990044.794     1525855.6691      -2381.901          24.404  
G30  25357792.466      982475.1971      -2349.266           7.000  
R02  21151271.380     1097895.7131      -1553.216          24.037  
R18  21560347.182     -352922.1901        536.500          21.542  
R16  21617097.295      105139.2761       -421.640          22.528  
R15  21925887.124     3076568.4230      -3760.154          30.360  
R17  21682240.397      726587.7320       -798.072          35.434  
R03  20409663.384    -1621264.0950       2163.465          35.594  
R04  23365241.980    -1721822.9471       3967.074          25.826  
J01  37785821.620      625577.6600       -945.369          32.042  
E014831161406.280      942717.8581      -1532.290          25.303  
> 2018  4 30 11 49 32.9997345  0 18
G02  23493416.446    -3428152.9910        910.564          37.356  
G03  23817307.121     3114400.6530      -3439.702          26.985  
G06  21165411.690      133294.1980       -258.706          32.317  
G09  23730118.181    -1121152.1660       1610.598          28.945  
G17  21427575.698     -695455.4770        700.062          35.897  
G19  21487646.912     -964261.5941       1089.047          21.361  
G23  24511290.387     -275146.1991        299.578          22.976  
G28  20990490.286     1528240.5740      -2384.969          26.933  
G30  25358240.955      984823.4961      -2349.266           7.000  
R02  21151583.164     1099450.2621      -1555.556          22.831  
R18  21560266.538     -353461.7651        540.083          22.870  
R16  21617189.631      105563.7931       -424.989          22.079  
R15  21926573.949     3080327.8731      -3759.234          26.923  
R17  21682385.497      727385.8540       -798.379          34.964  
R03  20409271.555    -1623427.2530       2162.649          32.968  
R04  23364553.956    -1725788.1490       3964.781          26.426  
J01  37786004.194      626522.7390       -945.380          32.998  
E015130954149.390      944247.6161      -1525.000          24.895  
> 2018  4 30 11 49 33.9997345  0 18
G02  23493244.066    -3429063.7530        910.575          37.493  
G03  23817968.763     3117840.8760      -3440.591          27.021  
G06  21165448.865      133552.2930       -258.852          31.846  
G09  23729790.508    -1122762.9620       1611.092          28.524  
G17  21427441.091     -696155.3880        699.672          35.176  
G19  21487432.260     -965350.5471       1087.551          21.459  
G23  24810976.718     -275444.8871        302.433          22.161  
G28  20990948.968     1530626.0060      -2385.330          30.271  
G30  25358688.845      987171.9381      -2348.291           7.000  
R02  21151870.665     1101005.8251      -1555.427          22.683  
R18  21560234.760     -354001.4071        542.664          23.358  
R16  21617235.499      105988.7861       -428.087          21.668  
R15  21927166.039     3084079.4371      -3758.547          23.292  
R17  21682552.781      728184.0130       -798.345          34.962  
R03  20408873.431    -1625589.6920       2162.130          32.016  
R04  23363771.498    -1729753.3420       3965.037          25.754  
J01  37786178.673      627467.9880       -945.281          32.209  
E015430746905.680      945777.9141      -1532.379          23.724  
> 2018  4 30 11 49 34.9997345  0 18
G02  23493077.081    -3429974.3240        910.497          37.224  
G03  23818618.414     3121281.3010      -3440.822          27.683  
G06  21165512.720      133810.5360       -258.473          30.242  
G09  23729484.120    -1124373.4390       1610.270          28.508  
G17  21427318.176     -696855.1620        699.743          35.244  
G19  21487233.198     -966443.6661       1087.250          21.394  
G23  24810914.961     -275743.3951        300.339          21.144  
G28  20991408.250     1533011.9040      -2385.823          29.011  
G30  25359137.335      989520.2221      -2348.291           7.000  
R02  21152210.929     1102562.4211      -1558.103          22.125  
R18  21560113.944     -354540.9871        542.981          23.854  
R16  21617287.963      106414.7250       -425.912          23.480  
R15  21927844.469     3087836.8481      -3754.851          19.911  
R17  21682689.187      728982.0840       -798.173          35.099  
R03  20408511.581    -1627751.4580       2160.905          28.858  
R04  23363039.704    -1733718.5101       3965.872          25.423  
J01  37786365.743      628413.2760       -945.265          31.863  
E015730539647.280      947308.8181      -1541.238          21.977  
> 2018  4 30 11 49 35.9997345  0 18
G02  23492898.105    -3430884.7700        910.397          37.041  
G03  23819278.856     3124721.9310      -3440.657          27.993  
G06  21165555.891      134069.0540       -258.715          29.704  
G09  23729173.835    -1125984.0250       1610.600          27.457  
G17  21427185.068     -697554.8560        699.790          35.392  
G19  21487032.337     -967536.4861       1087.723          22.249  
G23  24810870.891     -276041.6681        296.580          19.705  
G28  20991848.346     1535398.3580      -2386.585          28.091  
G30  25359584.925      991867.9121      -2348.291           7.000  
R02  21152502.627     1104119.3971      -1557.485          21.948  
R18  21559984.433     -355080.6470        539.508          24.689  
R16  21617419.572      106841.6080       -426.978          23.934  
R15  21928641.318     3091589.8901      -3755.414          17.861  
R17  21682847.777      729780.2080       -798.124          35.400  
R03  20408148.833    -1629912.7021       2160.148          25.638  
R04  23362331.594    -1737683.7690       3965.101          26.283  
J01  37786544.719      629358.5820       -944.925          32.770  
E016030332381.695      948839.6511      -1542.755          21.538  
> 2018  4 30 11 49 36.9997345  0 18
G02  23492723.926    -3431794.9520        909.998          36.444  
G03  23819924.010     3128162.9720      -3441.037          27.810  
G06  21165609.553      134327.8790       -259.147          28.514  
G09  23728847.061    -1127594.4670       1610.126          27.378  
G17  21427050.761     -698254.3820        699.408          35.584  
G19  21486830.577     -968625.7311       1089.586          22.015  
G23  24810795.943     -276340.0121        292.635          18.939  
G28  20992308.227     1537785.3320      -2387.215          27.578  
G30  25360032.515      994215.0121      -2347.315           7.000  
R02  21152843.791     1105682.0851      -1561.030          19.262  
R18  21559891.797     -355620.3910        539.385          24.943  
R16  21617471.136      107269.1631       -430.531          24.194  
R15  21929386.901     3095353.5061      -3757.186          19.385  
R17  21682997.673      730578.4310       -798.114          35.329  
R03  20407612.804    -1632072.9121       2158.166          23.880  
R04  23361556.031    -1741649.0550       3965.615          26.511  
J01  37786716.201      630304.0860       -945.576          32.120  
E016330125129.590      950371.0631      -1535.268          21.873  
> 2018  4 30 11 49 37.9997345  0 18
G02  23492545.249    -3432704.9490        909.808          35.034  
G03  23820605.438     3131604.3050      -3441.650          28.284  
G06  21165644.629      134586.9570       -259.337          29.422  
G09  23728553.864    -1129204.6830       1610.269          26.662  
G17  21426907.161     -698953.7410        699.194          36.029  
G19  21486636.011     -969714.8361       1090.117          23.589  
G23  24810733.886     -276637.1491        292.821          16.803  
G28  20992731.834     1540172.9170      -2388.105          26.399  
G30  25360480.105      996562.4921      -2347.315           7.000  
R02  21153154.676     1107247.5891      -1560.894          15.683  
R18  21559772.180     -356160.1730        540.096          24.777  
R16  21617582.059      107697.5540       -429.018          24.772  
R15  21930143.578     3099114.8201      -3761.993          21.144  
R17  21683139.175      731376.6220       -798.076          36.074  
R03  20407137.033    -1634232.6691       2160.306          24.132  
R04  23360842.525    -1745614.4030       3965.462          26.164  
J01  37786897.575      631249.6550       -945.761          32.515  
E016629917889.180      951903.0831      -1538.831          23.561  
> 2018  4 30 11 49 38.9997345  0 18
G02  23492365.074    -3433614.6830        909.738          33.654  
G03  23821240.398     3135045.9760      -3441.932          28.243  
G06  21165690.797      134846.3390       -259.260          31.277  
G09  23728247.176    -1130814.8270       1610.468          25.970  
G17  21426777.051     -699652.8150        699.160          36.523  
G19  21486433.652     -970803.7430       1089.249          23.471  
G23  24810670.330     -276935.4371        292.673          16.334  
G28  20993173.129     1542561.0611      -2388.639          23.778  
G30  25360927.395      998908.8411      -2347.315           7.000  
R02  21153580.381     1108813.4081      -1561.813          18.403  
R18  21559649.565     -356699.8090        539.542          24.419  
R16  21617621.032      108126.9210       -429.802          24.474  
R15  21930802.521     3102876.9190      -3761.986          25.572  
R17  21683294.468      732174.9670       -798.181          36.176  
R03  20406797.368    -1636391.5990       2158.773          28.675  
R04  23360140.411    -1749579.6760       3964.830          26.141  
J01  37787072.054      632195.3490       -945.664          32.802  
E016929710642.480      953435.4571      -1534.588          24.566  
> 2018  4 30 11 49 39.9997345  0 18
G02  23492198.689    -3434524.1930        909.592          33.897  
G03  23821900.242     3138487.9510      -3442.042          28.169  
G06  21165740.263      135105.9970       -259.748          32.058  
G09  23727931.795    -1132424.6340       1609.771          26.515  
G17  21426649.939     -700351.7280        698.872          36.131  
G19  21486248.979     -971892.4190       1088.904          23.475  
G23  24810607.374     -277231.9411        294.776          18.244  
G28  20993621.618     1544949.6330      -2388.547          23.728  
G30  25361373.786     1001255.3311      -2346.339           7.000  
R02  21153908.054     1110377.4051      -1562.334          17.784  
R18  21559543.738     -357239.5740        540.066          24.137  
R16  21617717.566      108556.9940       -430.344          25.717  
R15  21931554.701     3106639.3880      -3762.291          28.907  
R17  21683432.972      732973.2710       -798.171          35.782  
R03  20406422.927    -1638549.8980       2157.867          33.408  
R04  23359343.563    -1753545.0810       3965.734          25.856  
J01  37787256.427      633141.1730       -945.507          32.724  
E017229503393.375      954968.3951      -1534.933          25.669  
> 2018  4 30 11 49 40.9997345  0 18
G02  23492021.212    -3435433.4700        909.338          34.034  
G03  23822575.674     3141930.2740      -3442.475          28.021  
G06  21165779.836      135365.7960       -259.842          32.912  
G09  23727640.097    -1134034.5331       1610.697          25.699  
G17  21426505.139     -701050.4920        698.793          36.025  
G19  21486055.014     -972980.9460       1088.486          24.017  
G23  24810546.816     -277528.1531        293.942          17.801  
G28  20994095.890     1547338.7901      -2386.287          22.926  
G30  25361821.376     1003601.6641      -2346.339           7.000  
R02  21154106.517     1111934.4641      -1561.579          18.440  
R18  21559494.572     -357779.3181        538.556          24.586  
R16  21617795.811      108987.8300       -430.630          26.757  
R15  21932244.523     3110402.1720      -3762.696          30.398  
R17  21683588.264      733771.6560       -798.192          35.384  
R03  20406042.191    -1640707.6710       2157.464          35.238  
R04  23358617.765    -1757510.4580       3965.809          26.185  
J01  37787433.004      634087.0960       -945.989          32.795  
E017529296142.770      956501.5641      -1530.887          25.622  
> 2018  4 30 11 49 41.9997345  0 18
G02  23491857.525    -3436342.5710        909.170          35.250  
G03  23823211.234     3145372.7780      -3442.717          28.058  
G06  21165843.991      135625.9480       -260.216          33.432  
G09  23727302.830    -1135644.0360       1609.348          26.582  
G17  21426374.729     -701749.1580        698.633          35.101  
G19  21485820.276     -974069.3410       1088.060          24.355  
G23  24810568.701     -277828.5321        294.427          16.107  
G28  20994533.587     1549728.5570      -2390.002          24.189  
G30  25362268.967     1005947.4031      -2346.339           7.000  
R02  21154218.339     1113497.4331      -1561.799          18.775  
R18  21559396.540     -358319.1500        539.903          24.065  
R16  21617907.034      109419.5180       -432.253          26.749  
R15  21932921.454     3114165.1410      -3763.055          31.924  
R17  21683751.052      734570.0250       -798.440          35.410  
R03  20405652.761    -1642864.6990       2156.491          35.053  
R04  23357886.871    -1761475.7500       3965.405          25.868  
J01  37787620.375      635033.1240       -946.031          32.045  
E017829088890.980      958035.2371      -1525.725          24.931  
> 2018  4 30 11 49 42.9997345  0 18
G02  23491681.847    -3437251.3210        908.495          36.745  
G03  23823881.570     3148815.6790      -3442.778          27.907  
G06  21165893.457      135886.3910       -260.702          34.056  
G09  23727009.033    -1137253.5340       1609.331          26.953  
G17  21426246.118     -702447.5090        698.321          34.404  
G19  21485615.218     -975157.6380       1087.940          24.278  
G23  24810535.424     -278122.2131        294.147          11.663  
G28  20995019.251     1552118.8930      -2390.898          24.821  
G30  25362715.358     1008292.5521      -2345.363           7.000  
R02  21154497.146     1115060.7881      -1561.174          18.985  
R18  21559308.401     -358858.8770        539.329          24.354  
R16  21617997.871      109852.1310       -433.100          26.164  
R15  21933634.061     3117928.4990      -3763.555          33.762  
R17  21683880.862      735368.6020       -798.667          35.287  
R03  20405237.548    -1645021.0400       2155.827          34.434  
R04  23357145.784    -1765440.9730       3965.060          25.403  
J01  37787804.747      635979.2990       -946.408          32.072  
E018128881648.164      959569.4831      -1534.818          24.180  
> 2018  4 30 11 49 43.9997345  0 18
G02  23491509.167    -3438159.8280        908.148          37.431  
G03  23824549.208     3152259.0080      -3443.544          27.563  
G06  21165942.923      136147.0420       -261.072          34.631  
G09  23726709.541    -1138862.9410       1609.456          27.198  
G17  21426107.315     -703145.7430        698.206          34.647  
G19  21485406.263     -976245.6741       1085.726          24.184  
G23  24810457.178     -278411.6951        293.659          11.725  
G28  20995465.941     1554509.7590      -2391.510          27.694  
G30  25363161.748     1010638.0811      -2345.363           7.000  
R02  21154822.421     1116625.0471      -1562.118          19.186  
R18  21559175.294     -359398.8580        539.858          24.541  
R16  21618068.023      110285.4680       -433.982          24.136  
R15  21934325.083     3121692.1270      -3763.904          34.008  
R17  21684027.760      736167.1310       -798.583          34.768  
R03  20404847.218    -1647176.7420       2155.102          34.083  
R04  23356360.028    -1769406.2370       3965.253          25.561  
J01  37787969.933      636925.5480       -946.458          31.971  
E018428674408.950      961104.1431      -1542.696          22.744  
> 2018  4 30 11 49 44.9997345  0 18
G02  23491337.985    -3439068.1660        908.283          38.184  
G03  23825204.254     3155702.5060      -3443.505          27.326  
G06  21165986.393      136408.0040       -260.987          35.486  
G09  23726382.767    -1140472.0490       1609.071          25.858  
G17  21425979.003     -703843.8060        697.992          35.009  
G19  21485198.207     -977333.6571       1090.160          23.914  
G23  24810572.298     -278717.3471        295.326          11.996  
G28  20995926.423     1556901.2800      -2391.724          28.811  
G30  25363609.039     1012982.4781      -2345.363           7.000  
R02  21155204.057     1118190.0991      -1564.074          21.042  
R18  21559067.068     -359938.6481        538.004          24.536  
R16  21618164.256      110719.7511       -438.253          22.383  
R15  21935043.086     3125456.0650      -3764.394          33.513  
R17  21684180.055      736965.6440       -798.629          35.068  
R03  20404407.423    -1649331.6620       2154.828          32.182  
R04  23355595.857    -1773371.5160       3965.206          24.930  
J01  37788164.498      637871.8990       -946.460          32.257  
E018728467167.650      962637.7071      -1538.699          21.005  
> 2018  4 30 11 49 45.9997345  0 18
G02  23491171.600    -3439976.3280        907.966          38.633  
G03  23825846.710     3159146.4000      -3444.219          27.463  
G06  21166039.456      136669.1330       -261.208          35.587  
G09  23726098.564    -1142081.1250       1608.973          26.820  
G17  21425849.193     -704541.6910        697.576          35.264  
G19  21484991.650     -978421.3070       1087.777          24.825  
G23  24810451.182     -279012.4871        295.526          18.515  
G28  20996357.524     1559293.1240      -2392.168          29.485  
G30  25364055.730     1015327.0171      -2344.388           7.000  
R02  21155523.936     1119755.9381      -1565.981          19.819  
R18  21558900.084     -360477.8801        541.587          22.403  
R16  21618217.619      111154.7181       -435.038          21.654  
R15  21935726.013     3129220.1840      -3764.238          32.211  
R17  21684325.754      737764.2460       -798.499          34.864  
R03  20403990.112    -1651485.8680       2153.807          30.789  
R04  23354887.148    -1777336.7950       3965.490          24.577  
J01  37788337.179      638818.3190       -946.604          32.498  
E019028259908.950      964172.0231      -1547.651          19.080  
> 2018  4 30 11 49 46.9997345  0 18
G02  23491016.008    -3440884.0960        909.200          36.359  
G03  23826455.588     3162590.9110      -3444.515          26.831  
G06  21166088.922      136930.0121       -262.154          34.195  
G09  23725798.172    -1143689.2090       1606.695          33.330  
G17  21425714.586     -705237.8580        694.503          36.655  
G19  21484791.089     -979508.7691       1086.388          27.709  
G23  24810346.255     -279307.1941        292.841          23.287  
G28  20996830.896     1561685.9470      -2392.425          29.943  
G30  25364807.909     1017671.3991      -2344.388           7.000  
R02  21155766.468     1121321.9611      -1567.246          20.415  
R18  21558821.239     -361016.8390        538.411          27.998  
R16  21618316.251      111591.0711       -436.279          26.555  
R15  21936466.800     3132984.9831      -3764.214          32.391  
R17  21684512.225      738564.9900       -805.114          32.831  
R03  20403597.683    -1653638.5290       2151.570          35.397  
R04  23354215.313    -1781301.6961       3966.537          24.072  
J01  37788528.146      639766.3780       -950.248          33.059  
E019328052685.030      965708.1771      -1541.244          23.181  
> 2018  4 30 11 49 47.9997345  0 18
G02  23490827.738    -3441789.1671        904.470          36.132  
G03  23827127.123     3166036.1791      -3445.439          26.150  
G06  21166138.987      137191.2921       -258.459          32.973  
G09  23725483.989    -1145295.6831       1604.833          33.449  
G17  21425580.579     -705933.0190        696.319          37.465  
G19  21484587.829     -980596.7741       1083.138          25.946  
G23  24810225.738     -279600.4381        293.848          25.933  
G28  20997311.464     1564079.9161      -2391.812          27.078  
G30  25364949.411     1020015.1871      -2344.388           7.000  
R02  21156065.661     1122886.6501      -1568.450          21.972  
R18  21558719.309     -361556.8431        537.271          28.473  
R16  21618392.398      112023.1601       -437.414          24.978  
R15  21937160.220     3136745.7771      -3762.753          32.099  
R17  21684631.542      739369.0611       -798.404          29.164  
R03  20403192.364    -1655790.3711       2150.776          33.027  
R04  23353389.685    -1785265.1851       3967.460          24.338  
J01  37788701.426      640715.1250       -950.273          36.500  
E019627845401.450      967249.3761      -1538.094          23.829  
> 2018  4 30 11 49 48.9997345  0 18
G02  23490661.653    -3442694.7051        901.911          36.077  
G03  23827779.771     3169482.5981      -3442.890          24.574  
G06  21166201.943      137454.4231       -260.773          30.854  
G09  23725181.499    -1146903.1381       1608.491          35.148  
G17  21425451.668     -706628.6521        696.090          33.739  
G19  21484395.363     -981682.3571       1083.894          25.184  
G23  24810204.753     -279889.9631        295.559          27.090  
G28  20997775.542     1566475.8851      -2392.085          25.231  
G30  25365701.590     1022358.3841      -2343.412           7.000  
R02  21156300.098     1124455.0231      -1565.089          24.067  
R18  21558623.675     -362090.1921        538.842          27.538  
R16  21618509.317      112458.7061       -438.210          22.114  
R15  21937877.623     3140513.5211      -3764.301          34.559  
R17  21684778.440      740174.5291       -800.276          26.786  
R03  20402819.122    -1657946.2041       2161.447          29.739  
R04  23352625.814    -1789230.4421       3961.809          22.602  
J01  37788890.296      641664.2451       -949.929          35.865  
E019927638178.130      968790.8791      -1544.958          22.401  
> 2018  4 30 11 49 49.9997345  0 18
G02  23490486.874    -3443603.0071        905.766          32.839  
G03  23828423.726     3172930.1901      -3449.267          26.412  
G06  21166251.109      137725.3981       -263.906          32.644  
G09  23724861.920    -1148510.2381       1607.844          34.299  
G17  21425331.751     -707322.7771        694.748          32.343  
G19  21484198.099     -982771.3271       1085.375          21.824  
G23  24810146.593     -280187.1161        298.752          27.561  
G28  20998230.028     1568866.2331      -2391.493          24.002  
G30  25365844.891     1024703.4941      -2343.412           7.000  
R02  21156597.792     1126023.9221      -1566.579          22.320  
R18  21558575.709     -362633.0691        541.570          26.845  
R16  21618614.844      112903.6571       -442.825          21.637  
R15  21938574.341     3144284.2701      -3768.164          32.517  
R17  21684963.112      740976.9241       -799.916          27.487  
R03  20402441.983    -1660106.8431       2148.121          27.239  
R04  23351879.630    -1793193.9561       3958.692          20.836  
J01  37789070.171      642613.3221       -947.183          35.669  
E010227430916.140      970331.1281      -1543.398          22.017  
> 2018  4 30 11 49 50.9997345  0 18
G02  23490315.993    -3444507.2661        908.082          31.505  
G03  23829124.340     3176374.1001      -3443.749          24.425  
G06  21166307.170      137982.3111       -262.466          31.453  
G09  23724576.817    -1150115.3371       1602.959          36.307  
G17  21425184.553     -708017.3511        690.755          33.587  
G19  21483994.540     -983855.5251       1088.436          22.855  
G23  24810049.460     -280476.9831        289.992          26.959  
G28  20998643.741     1571254.4561      -2392.343          24.929  
G30  25366291.282     1027048.3101      -2345.363           7.000  
R02  21156969.235     1127592.2811      -1569.508          21.214  
R18  21558458.190     -363176.0161        539.066          24.728  
R16  21618652.019      113350.5191       -441.142          20.890  
R15  21939272.558     3148047.6971      -3765.324          32.661  
R17  21685096.520      741776.0461       -799.821          26.179  
R03  20402050.454    -1662255.1621       2141.115          25.891  
R04  23351106.765    -1797160.4371       3972.469          19.477  
J01  37789248.847      643563.0080       -949.514          34.355  
E010527223665.234      971867.9621      -1544.201          22.210  
> 2018  4 30 11 49 51.9997345  0 18
G02  23490161.899    -3445410.8081        906.234          28.834  
G03  23829765.297     3179822.3841      -3446.243          24.502  
G06  21166358.135      138246.3041       -261.654          29.604  
G09  23724289.616    -1151723.5941       1609.773          32.517  
G17  21425070.332     -708712.5981        694.820          30.600  
G19  21483761.302     -984939.9891       1085.414          21.042  
G23  24810015.584     -280759.7831        287.919          25.479  
G28  20999114.116     1573651.7071      -2397.217          25.699  
G30  25366737.673     1029392.8491      -2344.388           7.000  
R02  21157220.461     1129163.1231      -1568.769          21.480  
R18  21558313.390     -363719.0691        538.112          23.023  
R16  21618770.736      113790.7271       -439.320          20.840  
R15  21939951.887     3151812.3371      -3758.474          31.476  
R17  21685266.802      742574.7911       -799.830          27.289  
R03  20401609.160    -1664405.3401       2149.415          24.966  
R04  23350426.836    -1801130.4951       3970.581          18.477  
J01  37789434.719      644512.2830       -948.637          36.604  
E010827016420.630      973400.3031      -1545.251          19.924  
> 2018  4 30 11 49 52.9997345  0 18
G02  23489972.730    -3446310.2331        903.384          27.475  
G03  23830404.754     3183273.7641      -3447.014          24.893  
G06  21166405.802      138506.1171       -262.881          29.400  
G09  23723976.333    -1153335.5161       1610.532          29.336  
G17  21424944.420     -709409.9271        696.489          27.834  
G19  21483555.344     -986016.2801       1081.904          19.953  
G23  24809959.522     -281048.6491        291.136          26.175  
G28  20999531.727     1576045.0861      -2394.963          28.907  
G30  25367184.064     1031737.2321      -2344.388           7.000  
R02  21157508.861     1130733.5671      -1565.567          19.157  
R18  21558263.924     -364260.9711        542.129          24.439  
R16  21618875.364      114230.3951       -440.650          22.003  
R15  21940654.001     3155572.5881      -3764.248          28.318  
R17  21685420.296      743380.2191       -800.504          26.171  
R03  20401203.840    -1666561.0981       2151.183          25.550  
R04  23349721.124    -1805101.7821       3968.377          19.118  
J01  37789611.896      645461.8021       -948.840          34.564  
E011126809165.836      974924.4741      -1530.005          20.666  
> 2018  4 30 11 49 53.9997345  0 18
G02  23489797.651    -3447211.6890        901.262          30.205  
G03  23831095.476     3186727.0671      -3447.255          24.234  
G06  21166440.878      138771.5261       -264.417          29.882  
G09  23723696.027    -1154939.1631       1604.667          26.568  
G17  21424839.792     -710109.3551        698.871          26.929  
G19  21483367.074     -987098.9881       1083.412          19.348  
G23  24809895.367     -281338.7461        296.054          27.966  
G28  20999982.615     1578437.9611      -2393.587          30.583  
G30  25367630.455     1034081.0201      -2344.388           7.000  
R02  21157750.194     1132297.9111      -1572.606          23.049  
R18  21558163.194     -364807.6581        542.461          24.757  
R16  21618884.658      114667.5891       -445.320          21.861  
R15  21941353.417     3159332.5851      -3771.127          28.704  
R17  21685539.613      744179.2501       -803.408          26.353  
R03  20400832.098    -1668717.2871       2148.727          26.065  
R04  23348879.007    -1809075.5711       3967.461          20.705  
J01  37789794.170      646409.3271       -949.743          33.557  
E011426601913.734      976435.9941      -1525.161          19.971  
> 2018  4 30 11 49 54.9997345  0 18
G02  23489641.160    -3448112.9781        901.436          26.077  
G03  23831741.828     3190174.1441      -3450.447          21.639  
G06  21166499.937      139035.6051       -264.082          29.679  
G09  23723397.434    -1156540.6921       1601.852          24.898  
G17  21424680.003     -710804.7341        694.576          25.497  
G19  21483166.513     -988184.9671       1084.623          20.030  
G23  24809811.125     -281634.3791        289.531          29.151  
G28  21000435.601     1580832.3531      -2394.258          36.623  
G30  25368075.647     1036424.2171      -2343.412           7.000  
R02  21158041.593     1133867.7491      -1570.062          21.873  
R18  21558038.481     -365350.9711        537.206          28.487  
R16  21619027.059      115108.7751       -441.642          20.870  
R15  21942054.332     3163102.4781      -3769.313          28.593  
R17  21685720.088      744979.5701       -800.026          24.246  
R03  20400410.889    -1670869.4301       2148.295          25.336  
R04  23348137.621    -1813043.1411       3967.040          19.988  
J01  37789977.043      647356.3361       -948.977          32.466  
E011726394655.336      977951.6551      -1530.826          21.079  
> 2018  4 30 11 49 55.9997345  0 18
G02  23489466.081    -3449012.8841        902.292          25.306  
G03  23832417.261     3193623.2831      -3448.215          20.103  
G06  21166538.910      139299.6021       -263.431          35.322  
G09  23723080.253    -1158144.0671       1604.394          26.986  
G17  21424552.291     -711502.3041        696.388          25.145  
G19  21482971.049     -989274.6091       1085.929          21.730  
G23  24809767.355     -281920.1371        288.264          32.732  
G28  21000897.581     1583227.2911      -2397.428          38.913  
G30  25368520.838     1038767.0291      -2343.412           7.000  
R02  21158375.861     1135437.1421      -1568.622          24.632  
R18  21557941.048     -365887.7981        536.290          29.511  
R16  21619111.900      115547.6881       -441.311          19.348  
R15  21942757.345     3166875.7431      -3764.607          26.179  
R17  21685894.268      745778.3511       -796.064          24.172  
R03  20400003.471    -1673021.8911       2149.008          22.387  
R04  23347383.343    -1817010.2711       3968.123          19.792  
J01  37790159.617      648305.9630       -950.367          31.409  
E012026187390.050      979481.3871      -1532.732          21.619  
> 2018  4 30 11 49 56.9997345  0 18
G02  23489305.692    -3449913.5051        908.724          22.572  
G03  23833065.412     3197069.8121      -3446.598          18.272  
G06  21166589.875      139562.7891       -262.894          34.313  
G09  23722775.664    -1159750.2461       1607.409          26.584  
G17  21424416.485     -712194.2241        695.773          23.587  
G19  21482738.410     -990364.2221       1089.098          23.851  
G23  24809695.105     -282206.8201        286.466          33.901  
G28  21001353.865     1585622.7830      -2395.323          40.946  
G30  25368965.131     1041109.2501      -2342.437           7.000  
R02  21158648.373     1137005.6261      -1573.906          22.465  
R18  21557841.517     -366425.5751        538.529          31.958  
R16  21619189.247      115993.8951       -446.440          22.784  
R15  21943519.118     3170642.3421      -3763.271          23.475  
R17  21686014.185      746578.4441       -797.222          23.813  
R03  20399637.125    -1675172.9441       2147.977          22.108  
R04  23346642.556    -1820982.7821       3966.789          18.951  
J01  37790333.197      649255.5860       -949.320          33.830  
E012325980164.020      981018.5911      -1544.759          20.008  
> 2018  4 30 11 49 57.9997345  0 18
G02  23489128.215    -3450818.1821        903.101          21.277  
G03  23833709.666     3200515.8011      -3445.911          17.411  
G06  21166654.630      139827.7661       -264.706          33.550  
G09  23722468.677    -1161358.5081       1606.930          28.090  
G17  21424292.371     -712885.2191        696.943          23.353  
G19  21482537.549     -991448.6401       1087.195          26.489  
G23  24809634.847     -282491.9410        285.306          36.752  
G28  21001809.250     1588018.2970      -2394.608          38.427  
G30  25369411.522     1043451.8531      -2342.437           7.000  
R02  21158931.676     1138576.9021      -1572.319          23.345  
R18  21557741.686     -366962.1411        538.212          30.852  
R16  21619242.610      116438.8691       -445.024          21.900  
R15  21944201.745     3174408.0381      -3766.806          22.700  
R17  21686139.498      747379.5661       -801.136          23.523  
R03  20399215.317    -1677327.1831       2149.005          25.657  
R04  23345982.712    -1824951.1571       3966.592          18.915  
J01  37790518.169      650204.8480       -948.062          36.088  
E012625772903.530      982556.0981      -1537.869          20.222  
> 2018  4 30 11 49 58.9997345  0 18
G02  23488946.840    -3451718.9971        907.916          22.965  
G03  23834385.698     3203966.0851      -3445.561          19.626  
G06  21166693.603      140093.5791       -268.279          29.712  
G09  23722168.884    -1162964.7441       1604.429          28.796  
G17  21424167.657     -713587.8451        699.917          23.666  
G19  21482323.797     -992532.4401       1084.003          30.028  
G23  24809598.572     -282776.7140        284.902          35.877  
G28  21002268.232     1590414.8811      -2397.875          34.976  
G30  25369855.514     1045793.3231      -2342.437           7.000  
R02  21159226.672     1140152.5151      -1573.693          24.973  
R18  21557643.954     -367496.6251        539.260          29.044  
R16  21619361.328      116885.5171       -446.607          25.273  
R15  21944842.702     3178175.1121      -3761.716          25.701  
R17  21686325.669      748183.9111       -798.454          23.929  
R03  20398820.790    -1679474.1571       2147.504          23.370  
R04  23345240.426    -1828914.9951       3966.207          20.583  
J01  37790689.650      651154.7841       -944.717          35.276  
E012925565630.140      984099.2271      -1535.232          20.933  
> 2018  4 30 11 49 59.9997345  0 18
G02  23488784.953    -3452624.6401        908.256          22.762  
G03  23835026.654     3207407.0921      -3444.990          20.439  
G06  21166760.756      140359.1541       -266.659          26.722  
G09  23721886.780    -1164571.6881       1604.924          26.505  
G17  21424007.268     -714281.7601        695.085          25.749  
G19  21482108.546     -993619.6661       1083.685          30.450  
G23  24809539.813     -283061.7620        285.902          35.674  
G28  21002717.621     1592806.1901      -2395.884          37.660  
G30  25370300.407     1048134.1691      -2341.461           7.000  
R02  21159513.574     1141725.2721      -1571.273          23.846  
R18  21557532.131     -368039.0811        540.059          30.674  
R16  21619450.666      117334.7761       -449.446          29.863  
R15  21945534.323     3181931.9041      -3760.911          27.757  
R17  21686482.760      748983.4021       -799.163          24.824  
R03  20398379.496    -1681623.4021       2143.559          24.772  
R04  23344481.052    -1832885.3171       3964.543          22.338  
J01  37790875.521      652103.8951       -948.270          33.444  
E013225358407.730      985605.2091      -1541.544          20.917  
> 2018  4 30 11 50  0.9997345  0 18
G02  23488609.274    -3453536.3471        906.600          24.090  
G03  23835696.391     3210848.1631      -3444.344          20.515  
G06  21166829.709      140627.1831       -265.840          25.204  
G09  23721571.698    -1166183.8161       1608.558          24.101  
G17  21423905.939     -714977.6031        690.892          26.267  
G19  21481916.978     -994705.6051       1087.815          27.909  
G23  24809487.050     -283346.7501        287.915          36.706  
G28  21003178.402     1595202.6111      -2393.921          34.727  
G30  25370745.898     1050475.4001      -2340.486           7.000  
R02  21159851.739     1143301.4121      -1573.207          23.012  
R18  21557442.793     -368577.7090        536.934          33.253  
R16  21619528.912      117784.4941       -447.937          29.924  
R15  21946296.095     3185692.3881      -3760.387          29.171  
R17  21686656.340      749785.6371       -797.277          23.160  
R03  20398005.055    -1683765.1541       2143.574          26.234  
R04  23343772.343    -1836852.4231       3964.445          22.630  
J01  37791051.499      653052.9611       -949.586          34.443  
