     3.03           OBSERVATION DATA    M: Mixed            RINEX VERSION / TYPE
Geo++ RINEX Logger  Geo++               20180430 115226 UTC PGM / RUN BY / DATE
************************************************************COMMENT
This file was generated by the Geo++ RINEX Logger App       COMMENT
for Android devices (Version 1.2.4). If you encounter       COMMENT
any issues, please send an email to android@geopp.de        COMMENT
Note: Tracking signals and phase shifts by best knowledge   COMMENT
************************************************************COMMENT
Geo++                                                       MARKER NAME
GEODETIC                                                    MARKER TYPE
RINEX Logger user   Geo++                                   OBSERVER / AGENCY
7EX0217A17003237    HUAWEI              VTR-L29             REC # / TYPE / VERS
7EX0217A17003237    VTR-L29                                 ANT # / TYPE
 -2418179.4985  5386123.0645  2405088.0816                  APPROX POSITION XYZ
        0.0000        0.0000        0.0000                  ANTENNA: DELTA H/E/N
G    4 C1C L1C D1C S1C                                      SYS / # / OBS TYPES
R    4 C1C L1C D1C S1C                                      SYS / # / OBS TYPES
E    4 C1B L1B D1B S1B                                      SYS / # / OBS TYPES
C    4 C2I L2I D2I S2I                                      SYS / # / OBS TYPES
J    4 C1C L1C D1C S1C                                      SYS / # / OBS TYPES
  2018     4    30    11    52   44.9996979     GPS         TIME OF FIRST OBS
G                                                           SYS / PHASE SHIFTS
R                                                           SYS / PHASE SHIFTS
E                                                           SYS / PHASE SHIFTS
C                                                           SYS / PHASE SHIFTS
J                                                           SYS / PHASE SHIFTS
                                                            END OF HEADER
> 2018  4 30 11 52 44.9996979  0 18
G02  23449680.024    -3600057.6270        880.602          35.433  
G03  23932881.611     3779141.0951      -3483.743          15.100  
G06  21164500.621      186296.0380       -295.464          36.403  
G09  23660551.341    -1428919.6920       1594.506          30.696  
G17  21391490.579     -827767.2070        678.518          36.624  
G19  21437264.990    -1171625.7490       1071.216          32.133  
G23  24790392.069     -326928.1961        243.068          14.116  
G28  21068228.569     1994927.0081      -2475.692          22.533  
G30  25431717.988     1429021.3811      -2280.973           7.000  
R02  21199352.094     1412806.5151      -1703.673          24.327  
R18  21529589.375     -458759.8921        559.166          22.612  
R16  21624064.771      201074.9610       -568.487          25.376  
R15  22051307.098     3805927.3970      -3798.954          33.679  
R17  21700149.999      880080.0181       -795.386          17.361  
R03  20322823.702    -2027339.9270       2042.002          42.748  
R04  23210876.445    -2488650.7350       3976.734          36.420  
J01  37809742.960      808954.9010       -952.591          32.388  
E012691152148.500     1244462.1011      -1615.478          18.986  
> 2018  4 30 11 52 45.9996979  0 18
G02  23449517.537    -3600938.6620        880.641          37.929  
G03  23933541.154     3782624.8611      -3483.618          14.240  
G06  21164550.087      186591.4780       -295.851          36.036  
G09  23660254.547    -1430514.0030       1594.068          31.746  
G17  21391354.473     -828445.6460        678.018          38.281  
G19  21437056.335    -1172697.3500       1072.889          29.928  
G23  24790308.726     -327175.3161        244.420          13.629  
G28  21068716.031     1997404.3981      -2479.180          23.071  
G30  25432152.687     1431301.7531      -2280.973           7.000  
R02  21199693.558     1414512.6250      -1706.734          29.003  
R18  21529443.376     -459317.8381        558.470          26.093  
R16  21624172.997      201643.8140       -569.624          25.771  
R15  22052048.185     3809726.0540      -3799.435          33.835  
R17  21700328.675      880880.0601       -794.510          16.720  
R03  20322445.664    -2029381.9510       2041.431          41.121  
R04  23210140.154    -2492627.7460       3976.551          36.869  
J01  37809930.030      809907.3110       -952.711          35.051  
E012990944927.875     1246063.6821      -1606.211          19.551  
> 2018  4 30 11 52 46.9996979  0 18
G02  23449342.158    -3601819.2140        880.502          39.252  
G03  23934209.092     3786109.4511      -3483.853          13.818  
G06  21164604.949      186887.2580       -295.961          34.851  
G09  23659953.555    -1432108.0480       1594.005          34.044  
G17  21391233.357     -829123.8710        678.022          38.936  
G19  21436838.086    -1173772.9441       1069.220          25.929  
G23  24790238.275     -327421.8761        243.486          12.769  
G28  21069168.718     1999882.4450      -2478.304          24.220  
G30  25432586.487     1433581.5371      -2279.998           7.000  
R02  21200023.629     1416219.5820      -1707.512          30.903  
R18  21529386.416     -459875.4940        557.655          30.124  
R16  21624270.429      202213.5870       -570.087          25.638  
R15  22052744.902     3813525.1190      -3799.157          33.547  
R17  21700478.871      881674.5571       -793.693          19.758  
R03  20322055.634    -2031423.1470       2040.906          41.676  
R04  23209409.260    -2496604.5540       3976.827          37.461  
J01  37810103.010      810860.0170       -952.860          34.807  
E013290737674.580     1247663.4301      -1605.496          20.509  
> 2018  4 30 11 52 47.9996979  0 18
G02  23449173.375    -3602699.4250        880.246          39.060  
G03  23934876.730     3789572.1661      -3484.514          12.958  
G06  21164676.000      187183.4490       -296.371          35.606  
G09  23659652.563    -1433701.7350       1593.705          35.032  
G17  21391102.348     -829801.7140        677.867          37.334  
G19  21436621.036    -1174844.0351       1070.370          26.065  
G23  24790156.732     -327664.0981        241.279          12.701  
G28  21069638.193     2002361.1071      -2476.245          22.958  
G30  25433020.286     1435861.7001      -2279.998           7.000  
R02  21200336.612     1417927.4690      -1707.877          29.742  
R18  21529270.696     -460433.0380        557.524          31.308  
R16  21624387.348      202784.3830       -571.081          25.190  
R15  22053453.012     3817324.5560      -3799.669          33.883  
R17  21700635.063      882469.2281       -793.844          18.541  
R03  20321680.593    -2033463.4570       2040.073          42.373  
R04  23208672.370    -2500581.1870       3976.733          38.272  
J01  37810287.683      811812.9370       -952.539          33.333  
E013590530456.350     1249264.8371      -1602.128          22.152  
> 2018  4 30 11 52 48.9996979  0 18
G02  23449009.688    -3603579.4920        880.013          38.397  
G03  23935554.560     3793061.6711      -3484.676          12.097  
G06  21164720.669      187479.8110       -296.476          35.780  
G09  23659353.970    -1435295.4070       1593.627          34.790  
G17  21390976.135     -830479.4880        677.880          37.300  
G19  21436417.477    -1175914.1621       1072.927          25.901  
G23  24790129.450     -327905.1811        240.373          12.141  
G28  21070098.974     2004840.2911      -2474.982          22.057  
G30  25433454.086     1438140.7311      -2279.998           7.000  
R02  21200684.372     1419636.1030      -1709.232          29.290  
R18  21529179.859     -460990.8200        558.064          31.146  
R16  21624523.454      203355.8631       -572.629          24.586  
R15  22054179.110     3821124.2260      -3799.788          32.965  
R17  21700846.417      883264.4301       -793.927          18.283  
R03  20321298.358    -2035503.1940       2039.473          41.819  
R04  23207931.583    -2504557.8820       3976.656          37.627  
J01  37810466.958      812765.9580       -952.817          32.342  
E013890323209.650     1250866.7031      -1593.652          21.661  
> 2018  4 30 11 52 49.9996979  0 18
G02  23448846.301    -3604459.3360        878.995          37.836  
G03  23936217.701     3796547.7951      -3484.358          11.630  
G06  21164773.732      187776.4020       -297.082          34.973  
G09  23659050.580    -1436888.9470       1593.066          34.345  
G17  21390848.424     -831157.0440        676.665          37.284  
G19  21436226.209    -1176984.1640       1070.336          25.214  
G23  24790082.983     -328150.1181        240.918          12.386  
G28  21070578.342     2007320.0591      -2479.845          21.023  
G30  25433888.186     1440420.6721      -2279.022           7.000  
R02  21201000.353     1421345.4500      -1709.941          27.812  
R18  21529042.254     -461548.5700        557.225          31.451  
R16  21624592.706      203928.2110       -572.758          23.674  
R15  22054874.328     3824924.0410      -3800.655          32.171  
R17  21700988.818      884064.8771       -795.631          18.773  
R03  20320910.426    -2037542.1550       2038.152          41.167  
R04  23207179.704    -2508534.5950       3976.198          37.323  
J01  37810650.431      813719.0590       -954.044          33.251  
E014190115987.230     1252468.8681      -1593.364          22.329  
> 2018  4 30 11 52 50.9996979  0 18
G02  23448672.722    -3605339.2100        880.378          36.506  
G03  23936881.742     3800032.5191      -3485.824          11.947  
G06  21164834.890      188073.1100       -296.476          35.653  
G09  23658743.892    -1438482.4330       1593.915          35.504  
G17  21390715.016     -831834.6280        677.745          37.877  
G19  21436031.944    -1178053.8690       1069.903          27.551  
G23  24790038.613     -328384.1531        240.076          11.525  
G28  21071064.606     2009800.1001      -2483.109          20.468  
G30  25434321.985     1442700.8731      -2279.998           7.000  
R02  21201280.659     1423055.5691      -1710.149          25.493  
R18  21528954.115     -462106.4920        558.060          31.110  
R16  21624712.023      204501.1840       -573.438          24.518  
R15  22055600.126     3828724.0750      -3799.932          31.272  
R17  21701120.427      884860.7301       -794.740          17.218  
R03  20320528.191    -2039580.6090       2038.351          41.724  
R04  23206447.611    -2512511.4590       3977.339          36.696  
J01  37810828.808      814672.0580       -952.585          31.742  
E014489908762.110     1254071.5491      -1592.009          22.335  
> 2018  4 30 11 52 51.9996979  0 18
G02  23448513.232    -3606218.9860        879.593          36.545  
G03  23937545.782     3803521.1051      -3485.246          11.738  
G06  21164893.349      188369.8790       -296.479          35.672  
G09  23658429.710    -1440075.9290       1593.197          33.870  
G17  21390590.602     -832512.2240        677.396          38.190  
G19  21435829.284    -1179124.4050       1069.803          29.095  
G23  24789992.745     -328625.2771        240.076          12.158  
G28  21071531.083     2012280.5931      -2482.126          21.512  
G30  25434756.984     1444981.0371      -2279.998           7.000  
R02  21201640.710     1424766.2590      -1711.561          30.020  
R18  21528827.603     -462664.6900        559.017          33.827  
R16  21624779.477      205074.7081       -573.770          23.349  
R15  22056311.233     3832524.1230      -3800.346          30.016  
R17  21701286.812      885648.9891       -793.020          15.692  
R03  20320148.054    -2041618.5730       2037.564          42.984  
R04  23205702.327    -2516488.4670       3977.161          37.104  
J01  37811011.082      815624.9850       -953.042          32.596  
E014789701521.400     1255674.2381      -1593.920          22.839  
> 2018  4 30 11 52 52.9996979  0 18
G02  23448346.547    -3607098.8310        879.767          36.291  
G03  23938208.623     3807006.0321      -3486.923          10.878  
G06  21164945.813      188666.6540       -296.982          35.055  
G09  23658130.517    -1441669.5770       1593.649          32.640  
G17  21390460.193     -833189.8900        677.104          37.128  
G19  21435615.232    -1180194.5490       1070.270          30.556  
G23  24789982.252     -328864.2081        239.554          11.781  
G28  21072014.648     2014761.2471      -2479.023          21.820  
G30  25435189.585     1447260.0671      -2279.998           7.000  
R02  21201933.907     1426477.4990      -1711.828          29.741  
R18  21528733.768     -463223.0170        558.492          34.452  
R16  21624919.480      205648.9151       -571.739          22.786  
R15  22057018.744     3836324.1360      -3800.646          29.130  
R17  21701323.386      886439.0361       -792.870          16.783  
R03  20319774.813    -2043656.1060       2037.166          42.358  
R04  23204944.151    -2520465.6970       3977.138          36.531  
J01  37811196.953      816577.7140       -952.826          34.160  
E015089494285.484     1257276.9171      -1587.763          21.484  
> 2018  4 30 11 52 53.9996979  0 18
G02  23448173.567    -3607978.5390        879.968          36.593  
G03  23938872.663     3810488.7971      -3487.787          10.376  
G06  21165000.675      188963.5800       -297.050          34.222  
G09  23657815.735    -1443263.1910       1593.462          31.783  
G17  21390331.282     -833867.5110        677.598          37.929  
G19  21435432.659    -1181264.4390       1069.788          30.829  
G23  24789924.692     -329103.3431        239.371          10.920  
G28  21072493.416     2017242.2371      -2484.626          21.930  
G30  25435623.384     1449539.2411      -2279.022           7.000  
R02  21202260.980     1428189.5470      -1712.069          28.675  
R18  21528634.836     -463781.6220        558.651          34.593  
R16  21625010.916      206223.8441       -576.345          23.207  
R15  22057686.981     3840124.2470      -3800.359          28.414  
R17  21701508.358      887232.8411       -794.721          22.869  
R03  20319391.978    -2045693.0230       2036.565          41.569  
R04  23204206.062    -2524443.0480       3977.587          35.545  
J01  37811373.831      817530.4880       -952.855          35.427  
E015389287059.164     1258888.6611      -1595.967          21.321  
> 2018  4 30 11 52 54.9996979  0 18
G02  23448011.679    -3608858.2840        879.809          37.243  
G03  23939536.404     3813982.1731      -3485.105           9.515  
G06  21165057.036      189260.5010       -297.161          34.519  
G09  23657519.240    -1444856.7520       1593.499          31.921  
G17  21390204.170     -834545.1610        677.387          38.371  
G19  21435228.200    -1182334.4990       1069.809          32.466  
G23  24789892.315     -329340.4131        236.956          10.060  
G28  21072984.177     2019723.7101      -2480.052          20.966  
G30  25436057.184     1451818.2581      -2279.022           7.000  
R02  21202618.033     1429902.2860      -1713.082          28.061  
R18  21528531.408     -464340.5010        558.756          34.956  
R16  21625118.542      206799.2691       -577.227          23.132  
R15  22058413.978     3843924.3820      -3800.486          27.979  
R17  21701687.634      888026.7611       -793.814          20.436  
R03  20319017.237    -2047729.3380       2035.896          41.999  
R04  23203474.269    -2528420.5980       3977.733          35.176  
J01  37811549.509      818483.0650       -952.702          34.763  
E015689079805.570     1260492.0241      -1592.094          21.700  
> 2018  4 30 11 52 55.9996979  0 18
G02  23447837.800    -3609737.9410        879.521          37.348  
G03  23940199.245     3817469.0731      -3487.534           8.655  
G06  21165118.493      189557.5380       -297.258          36.691  
G09  23657220.347    -1446450.2980       1593.560          32.224  
G17  21390068.364     -835222.7680        677.530          36.930  
G19  21435012.650    -1183404.5750       1069.732          31.208  
G23  24789857.839     -329572.7441        241.314          10.485  
G28  21073417.677     2022205.5991      -2478.375          20.333  
G30  25436490.984     1454096.6791      -2279.022           7.000  
R02  21202915.127     1431615.6690      -1713.650          28.588  
R18  21528434.875     -464899.4930        559.014          34.290  
R16  21625237.859      207375.2811       -575.655          22.086  
R15  22059115.792     3847724.7360      -3801.028          28.610  
R17  21701761.383      888820.1221       -795.595          23.306  
R03  20318633.503    -2049765.1600       2035.636          41.706  
R04  23202739.178    -2532398.2590       3977.771          34.275  
J01  37811733.881      819435.6450       -952.576          33.786  
E015988872573.250     1262075.3901      -1595.890          22.086  
> 2018  4 30 11 52 56.9996979  0 18
G02  23447676.511    -3610617.6090        879.702          38.266  
G03  23940863.585     3820952.0431      -3487.017           8.343  
G06  21165170.657      189854.6040       -297.521          36.437  
G09  23656914.859    -1448043.9580       1593.455          31.824  
G17  21389946.948     -835900.3670        677.442          37.070  
G19  21434797.099    -1184474.5850       1070.070          29.421  
G23  24789766.102     -329813.7901        238.288          11.950  
G28  21073917.131     2024687.6791      -2478.279          21.279  
G30  25436924.783     1456374.5111      -2278.047           7.000  
R02  21203268.583     1433329.6980      -1714.283          29.589  
R18  21528312.559     -465458.7770        559.512          33.702  
R16  21625328.397      207951.9201       -577.478          23.884  
R15  22059837.692     3851524.9890      -3800.276          28.961  
R17  21701892.093      889613.4511       -794.408          22.034  
R03  20318264.458    -2051800.5370       2035.090          41.328  
R04  23202001.988    -2536376.0550       3977.931          33.096  
J01  37811910.759      820388.1260       -952.238          33.709  
E016288665340.040     1263679.2801      -1600.623          21.428  
> 2018  4 30 11 52 57.9996979  0 18
G02  23447507.129    -3611497.0380        879.315          37.012  
G03  23941527.326     3824440.0331      -3487.992           7.483  
G06  21165233.614      190151.8880       -297.370          36.113  
G09  23656621.662    -1449637.4930       1593.614          32.348  
G17  21389810.842     -836577.8440        677.400          37.452  
G19  21434607.330    -1185544.5490       1069.780          30.275  
G23  24789720.833     -330044.8361        237.707          13.354  
G28  21074405.493     2027170.4511      -2484.175          23.144  
G30  25437358.583     1458652.7241      -2278.047           7.000  
R02  21203600.453     1435044.5440      -1715.627          28.574  
R18  21528207.332     -466018.0640        559.241          33.718  
R16  21625417.435      208529.4150       -577.677          24.153  
R15  22060559.293     3855325.4600      -3800.393          29.090  
R17  21702104.046      890406.8961       -795.448          20.822  
R03  20317886.420    -2053835.2070       2034.393          41.703  
R04  23201232.121    -2540353.8810       3977.691          34.056  
J01  37812091.534      821340.7160       -952.518          33.599  
E016588458095.130     1265277.2631      -1594.129          21.582  
> 2018  4 30 11 52 58.9996979  0 18
G02  23447345.241    -3612376.4930        879.553          36.950  
G03  23942191.066     3827922.6981      -3491.043           7.000  
G06  21165281.281      190449.2420       -297.533          36.138  
G09  23656326.066    -1451231.1090       1593.383          33.842  
G17  21389684.330     -837255.3230        677.168          38.159  
G19  21434408.268    -1186614.4160       1069.868          29.828  
G23  24789662.374     -330287.8211        237.495          15.105  
G28  21074872.569     2029653.4801      -2486.474          23.507  
G30  25437792.083     1460928.8411      -2278.047           7.000  
R02  21203893.350     1436759.8720      -1715.437          28.109  
R18  21528114.097     -466577.5780        559.451          33.984  
R16  21625561.036      209107.4880       -577.736          24.003  
R15  22061236.224     3859125.9790      -3800.448          27.930  
R17  21702317.498      891199.9141       -795.641          20.303  
R03  20317504.484    -2055869.3790       2033.942          41.216  
R04  23200487.437    -2544331.9970       3978.072          35.145  
J01  37812274.107      822293.1760       -952.668          33.546  
E016888250861.320     1266881.7231      -1590.105          22.092  
> 2018  4 30 11 52 59.9996979  0 18
G02  23447174.059    -3613255.9750        879.456          37.078  
G03  23942855.106     3831411.6601      -3486.635           7.538  
G06  21165341.239      190746.6370       -297.501          35.633  
G09  23656014.882    -1452824.7840       1593.672          34.541  
G17  21389555.419     -837932.8640        677.660          37.823  
G19  21434214.302    -1187684.3880       1069.669          31.572  
G23  24789621.902     -330524.7551        238.063          19.068  
G28  21075356.135     2032136.8220      -2483.496          24.965  
G30  25438225.583     1463204.3081      -2276.095           7.000  
R02  21204190.744     1438475.9810      -1716.613          27.352  
R18  21528009.769     -467137.4220        559.896          34.764  
R16  21625674.057      209686.1861       -578.298          23.990  
R15  22061956.925     3862926.6170      -3801.169          27.244  
R17  21702479.686      891994.0571       -786.332          19.560  
R03  20317123.748    -2057903.0720       2033.415          41.686  
R04  23199750.247    -2548310.2960       3978.141          35.549  
J01  37812451.884      823245.4660       -952.117          33.550  
E017188043618.516     1268482.2691      -1602.514          21.122  
> 2018  4 30 11 53  0.9996979  0 18
G02  23447001.679    -3614135.2920        879.196          37.927  
G03  23943519.147     3834896.3901      -3487.235           9.361  
G06  21165397.001      191044.1540       -297.595          35.795  
G09  23655724.383    -1454418.3300       1593.584          34.440  
G17  21389421.112     -838610.3040        677.424          38.537  
G19  21434006.246    -1188754.3320       1069.733          32.554  
G23  24789582.329     -330762.7061        237.226          18.108  
G28  21075831.006     2034620.5960      -2483.898          26.112  
G30  25438658.483     1465479.2131      -2275.120           7.000  
R02  21204502.229     1440192.8970      -1717.651          28.085  
R18  21527914.135     -467697.3700        560.119          35.839  
R16  21625780.184      210265.5541       -584.289          23.296  
R15  22062671.630     3866727.2870      -3800.753          27.213  
R17  21702628.683      892776.8011       -788.101          19.369  
R03  20316732.519    -2059936.1190       2032.639          41.638  
R04  23198997.168    -2552288.5690       3978.120          35.595  
J01  37812644.651      824197.8160       -952.131          34.710  
E017487836340.030     1270087.7191      -1604.465          20.083  
> 2018  4 30 11 53  1.9996979  0 18
G02  23446836.793    -3615014.4820        879.037          38.425  
G03  23944182.887     3838384.3581      -3485.913          10.616  
G06  21165459.957      191341.9240       -298.044          36.882  
G09  23655414.397    -1456011.7780       1593.250          34.647  
G17  21389302.994     -839287.5880        677.101          39.249  
G19  21433812.281    -1189824.1270       1069.772          34.322  
G23  24789532.264     -330999.7291        237.347          15.195  
G28  21076304.378     2037104.8810      -2484.526          26.511  
G30  25439092.283     1467754.4991      -2275.120           7.000  
R02  21204840.394     1441910.5200      -1717.911          29.126  
R18  21527811.606     -468257.3760        559.900          37.434  
R16  21625930.080      210845.6740       -580.519          23.998  
R15  22063409.120     3870528.2240      -3800.990          27.419  
R17  21702758.493      893564.0431       -788.200          18.634  
R03  20316349.084    -2061968.4940       2031.869          42.485  
R04  23198251.884    -2556266.9240       3978.080          36.662  
J01  37812822.128      825150.2450       -952.787          35.462  
E017787629112.210     1271693.1761      -1605.974          20.807  
> 2018  4 30 11 53  2.9996979  0 18
G02  23446667.410    -3615893.3090        878.760          38.522  
G03  23944828.640     3841874.9921      -3485.659          12.013  
G06  21165516.918      191640.0320       -298.263          37.590  
G09  23655116.703    -1457604.9470       1593.054          34.786  
G17  21389172.284     -839964.5830        676.838          39.520  
G19  21433611.420    -1190893.6280       1069.320          35.256  
G23  24789494.190     -331236.8961        236.671          15.353  
G28  21076767.258     2039589.7500      -2485.047          27.170  
G30  25439524.883     1470028.6511      -2275.120           7.000  
R02  21205158.174     1443629.1690      -1718.913          30.186  
R18  21527706.079     -468817.3060        559.913          37.885  
R16  21626007.726      211426.8640       -582.399          23.230  
R15  22064131.020     3874329.5670      -3801.778          27.863  
R17  21702864.320      894356.0031       -788.503          19.264  
R03  20315966.549    -2064000.0500       2031.120          42.134  
R04  23197513.196    -2560245.1380       3978.110          37.099  
J01  37813006.500      826102.8490       -952.541          35.550  
E018087421870.010     1273299.2211      -1615.410          21.053  
> 2018  4 30 11 53  3.9996979  0 18
G02  23446495.929    -3616771.7720        878.302          38.577  
G03  23945502.873     3845360.5991      -3487.083          12.972  
G06  21165578.375      191938.5730       -298.818          38.443  
G09  23654809.116    -1459197.7820       1592.825          34.901  
G17  21389046.072     -840641.2410        676.395          39.727  
G19  21433406.661    -1191962.8230       1069.282          34.372  
G23  24789449.821     -331472.8461        235.117          14.841  
G28  21077260.716     2042075.3660      -2485.621          27.665  
G30  25439958.683     1472302.9481      -2274.144           7.000  
R02  21205497.240     1445348.8350      -1720.147          30.287  
R18  21527597.554     -469377.0920        559.643          37.863  
R16  21626153.725      212008.7091       -582.919          23.950  
R15  22064847.524     3878131.2450      -3802.285          27.586  
R17  21702978.840      895149.6601       -792.349          20.908  
R03  20315592.708    -2066030.7320       2030.040          42.122  
R04  23196768.811    -2564223.1500       3977.760          37.004  
J01  37813187.875      827055.7350       -953.147          35.371  
E018387214649.380     1274911.9871      -1603.855          20.953  
> 2018  4 30 11 53  4.9996979  0 18
G02  23446333.741    -3617649.8780        878.110          38.312  
G03  23946173.209     3848849.2461      -3488.184          14.402  
G06  21165633.237      192237.4980       -299.069          38.391  
G09  23654508.425    -1460790.3270       1592.475          35.317  
G17  21388919.559     -841317.5630        676.279          40.074  
G19  21433211.796    -1193031.7150       1068.995          35.333  
G23  24789402.454     -331701.9601        234.898          14.395  
G28  21077726.893     2044561.6850      -2486.570          27.440  
G30  25440391.284     1474577.0861      -2274.144           7.000  
R02  21205821.615     1447069.4000      -1720.941          30.049  
R18  21527492.627     -469936.7590        559.628          37.147  
R16  21626234.369      212591.7231       -581.210          23.764  
R15  22065554.135     3881933.3500      -3801.875          27.664  
R17  21703111.049      895943.3841       -795.361          19.730  
R03  20315212.271    -2068060.5870       2029.495          42.171  
R04  23196011.236    -2568200.9940       3977.763          36.618  
J01  37813375.545      828008.8480       -953.192          35.460  
E018687007402.680     1276514.3111      -1598.642          18.676  
> 2018  4 30 11 53  5.9996979  0 18
G02  23446160.461    -3618527.6090        877.505          38.599  
G03  23946836.650     3852337.3541      -3489.578          18.508  
G06  21165696.793      192536.8510       -299.654          38.091  
G09  23654207.133    -1462382.5600       1591.916          34.983  
G17  21388790.948     -841993.5530        675.793          39.722  
G19  21433002.241    -1194100.1980       1068.364          36.321  
G23  24789352.388     -331934.2991        233.760          13.826  
G28  21078181.379     2047048.7000      -2487.519          27.351  
G30  25440825.083     1476850.6301      -2274.144           7.000  
R02  21206122.907     1448790.9470      -1722.253          30.578  
R18  21527374.209     -470496.3180        559.287          37.730  
R16  21626302.722      213175.5901       -584.523          24.774  
R15  22066264.643     3885735.8680      -3802.880          27.440  
R17  21703245.356      896737.1511       -793.124          22.086  
R03  20314840.229    -2070089.6080       2028.549          42.787  
R04  23195286.038    -2572178.7100       3977.432          37.720  
J01  37813547.925      828962.2020       -953.411          35.698  
E018986800178.760     1278121.9581      -1605.441          18.141  
> 2018  4 30 11 53  6.9996979  0 18
G02  23445999.772    -3619404.7640        877.001          38.265  
G03  23947520.776     3855826.0761      -3490.061          20.133  
G06  21165747.158      192836.7770       -299.904          37.574  
G09  23653904.343    -1463974.2840       1591.448          35.879  
G17  21388659.339     -842668.9790        675.447          39.779  
G19  21432806.477    -1195168.2520       1068.043          36.492  
G23  24789317.613     -332179.6231        234.866          13.004  
G28  21078646.657     2049536.5550      -2487.903          27.200  
G30  25441257.684     1479123.5841      -2273.168           7.000  
R02  21206460.173     1450513.6270      -1723.002          30.650  
R18  21527271.380     -471055.5480        559.352          38.095  
R16  21626427.736      213760.7680       -585.566          25.003  
R15  22066949.669     3889538.9520      -3803.030          27.245  
R17  21703348.784      897531.3811       -795.506          24.488  
R03  20314455.895    -2072117.5880       2027.678          42.858  
R04  23194535.357    -2576156.0320       3977.373          37.836  
J01  37813736.795      829916.0720       -953.956          35.705  
E019286592943.750     1279730.3381      -1604.770          18.489  
> 2018  4 30 11 53  7.9996979  0 18
G02  23445832.788    -3620281.7060        876.988          37.538  
G03  23948173.724     3859315.4021      -3490.434          20.396  
G06  21165802.020      193136.9790       -300.315          37.227  
G09  23653602.452    -1465565.8260       1591.510          35.542  
G17  21388532.527     -843344.2240        675.085          39.902  
G19  21432596.322    -1196236.0830       1067.837          36.189  
G23  24789273.243     -332417.2041        236.889          12.143  
G28  21079123.926     2052024.9930      -2488.625          25.353  
G30  25441690.284     1481396.9181      -2273.168           7.000  
R02  21206786.048     1452237.2010      -1723.975          29.675  
R18  21527170.650     -471614.7590        559.277          37.251  
R16  21626567.439      214346.7070       -586.256          25.558  
R15  22067707.244     3893342.2030      -3803.360          26.027  
R17  21703561.037      898325.6531       -796.175          24.924  
R03  20314076.358    -2074144.7930       2026.803          42.098  
R04  23193778.981    -2580133.3050       3977.384          36.790  
J01  37813919.968      830870.0230       -953.971          35.093  
E019586385709.930     1281341.3871      -1613.444          20.733  
> 2018  4 30 11 53  8.9996979  0 18
G02  23445661.906    -3621158.4380        876.683          37.367  
G03  23948853.654     3862806.7141      -3491.298          20.279  
G06  21165873.071      193437.4270       -300.781          37.187  
G09  23653289.768    -1467157.1980       1591.612          34.995  
G17  21388401.518     -844019.3190        674.977          39.251  
G19  21432400.858    -1197303.7750       1067.659          36.188  
G23  24789229.773     -332652.1301        234.783          11.903  
G28  21079598.797     2054513.8681      -2486.418          23.691  
G30  25442122.885     1483669.1191      -2273.168           7.000  
R02  21207105.326     1453961.6100      -1724.457          28.988  
R18  21527061.825     -472174.0450        559.334          36.405  
R16  21626653.779      214933.4461       -586.105          24.667  
R15  22068380.278     3897145.7121      -3803.291          24.573  
R17  21703696.843      899119.8991       -794.575          25.641  
R03  20313691.724    -2076171.2950       2026.132          41.720  
R04  23193051.085    -2584110.5680       3977.435          36.977  
J01  37814092.349      831824.0410       -954.025          34.650  
E019886178471.625     1282947.9151      -1601.065          18.271  
> 2018  4 30 11 53  9.9996979  0 18
G02  23445494.322    -3622035.0440        876.476          37.545  
G03  23949523.390     3866298.3641      -3490.750          18.390  
G06  21165919.539      193738.0110       -300.599          36.731  
G09  23652994.173    -1468748.4750       1591.162          35.111  
G17  21388266.911     -844694.3050        674.918          39.128  
G19  21432203.594    -1198371.3630       1067.497          36.309  
G23  24789185.704     -332887.4971        234.463          11.043  
G28  21080070.671     2057003.4151      -2493.190          22.177  
G30  25442557.284     1485942.9981      -2272.193           7.000  
R02  21207417.710     1455686.9360      -1725.519          27.847  
R18  21526970.389     -472733.4510        559.499          35.929  
R16  21626760.805      215520.8920       -587.425          24.153  
R15  22069155.542     3900949.4701      -3801.448          24.069  
R17  21703806.567      899914.0850       -794.123          27.205  
R03  20313311.887    -2078197.1630       2025.369          41.414  
R04  23192304.002    -2588087.8470       3977.185          36.965  
J01  37814283.316      832778.1100       -954.156          34.645  
E010185971249.805     1284557.9861      -1592.239          19.582  
> 2018  4 30 11 53 10.9996979  0 18
G02  23445331.535    -3622911.6830        876.575          37.201  
G03  23950213.212     3869789.9041      -3492.158          18.885  
G06  21165982.495      194038.6360       -300.736          36.647  
G09  23652691.682    -1470339.8950       1591.679          35.172  
G17  21388140.698     -845369.3350        674.887          38.420  
G19  21432007.830    -1199439.0510       1067.803          36.228  
G23  24789142.234     -333116.6601        233.469          10.665  
G28  21080532.651     2059493.0441      -2492.557          22.546  
G30  25442989.585     1488216.5921      -2274.144           7.000  
R02  21207716.603     1457412.7820      -1725.819          26.623  
R18  21526843.277     -473293.1130        559.484          35.789  
R16  21626871.428      216108.9211       -587.813          22.937  
R15  22069803.693     3904753.2640      -3803.538          24.777  
R17  21703948.069      900708.2841       -793.176          25.573  
R03  20312931.750    -2080222.6230       2025.205          41.702  
R04  23191559.917    -2592065.3850       3977.433          36.843  
J01  37814466.190      833732.0220       -953.898          34.480  
E010485764007.300     1286166.2961      -1587.178          19.675  
> 2018  4 30 11 53 11.9996979  0 18
G02  23445165.450    -3623788.3370        876.654          37.123  
G03  23950874.854     3873281.4181      -3492.898          19.999  
G06  21166030.462      194339.3180       -300.909          36.179  
G09  23652394.888    -1471931.3310       1591.493          35.029  
G17  21388011.188     -846044.4450        675.227          38.305  
G19  21431796.476    -1200506.7830       1067.570          36.065  
G23  24789097.565     -333347.9351        236.065          10.400  
G28  21080987.136     2061983.0011      -2491.085          22.857  
G30  25443422.485     1490489.9131      -2273.168           7.000  
R02  21208085.048     1459139.2321      -1727.050          25.834  
R18  21526745.844     -473853.1000        560.064          36.458  
R16  21626974.557      216697.4431       -590.954          23.259  
R15  22070512.402     3908557.0911      -3803.927          25.057  
R17  21704087.473      901502.1461       -796.150          24.139  
R03  20312557.909    -2082247.6590       2024.613          41.531  
R04  23190807.138    -2596043.1550       3977.774          36.610  
J01  37814651.162      834685.8020       -953.777          35.573  
E010785556782.480     1287767.9361      -1615.654          21.635  
> 2018  4 30 11 53 12.9996979  0 18
G02  23444999.065    -3624664.9590        876.546          36.782  
G03  23951529.301     3876773.2101      -3492.967          18.838  
G06  21166084.425      194639.9520       -300.480          35.302  
G09  23652095.395    -1473522.8040       1591.511          34.332  
G17  21387877.780     -846719.5340        675.103          37.719  
G19  21431594.116    -1201574.5610       1067.784          35.919  
G23  24789220.180     -333582.1481        231.256          10.213  
G28  21081450.016     2064473.2891      -2487.165          23.122  
G30  25443855.086     1492763.0761      -2273.168           7.000  
R02  21208340.771     1460866.4331      -1730.301          24.870  
R18  21526636.420     -474413.2480        560.403          36.506  
R16  21627098.971      217286.6361       -590.191          23.317  
R15  22071276.273     3912360.7801      -3803.579          25.637  
R17  21704244.264      902295.9001       -796.029          23.453  
R03  20312183.468    -2084272.0730       2024.205          42.092  
R04  23190074.446    -2600021.0640       3977.842          36.527  
J01  37814827.440      835639.4760       -953.214          35.643  
E011085349550.760     1289379.1391      -1623.550          20.890  
> 2018  4 30 11 53 13.9996979  0 18
G02  23444832.980    -3625541.6140        876.663          36.895  
G03  23952191.543     3880264.9901      -3492.852          19.280  
G06  21166147.081      194940.6610       -300.758          35.278  
G09  23651791.705    -1475114.3960       1591.681          33.889  
G17  21387754.266     -847394.6550        674.990          38.211  
G19  21431389.957    -1202642.3780       1067.603          36.279  
G23  24789134.439     -333817.1451        230.306          10.654  
G28  21081927.585     2066963.8451      -2492.156          22.936  
G30  25444286.487     1495035.6431      -2273.168           7.000  
R02  21208694.826     1462594.1350      -1728.652          25.358  
R18  21526543.784     -474973.6550        560.597          36.742  
R16  21627198.502      217876.4560       -590.317          24.226  
R15  22071955.004     3916164.6070      -3804.076          26.184  
R17  21704457.117      903089.5421       -793.248          21.756  
R03  20311816.822    -2086296.1010       2023.421          42.183  
R04  23189325.864    -2603999.2320       3978.001          37.067  
J01  37815008.514      836593.0670       -953.717          36.165  
E011385142320.840     1290992.1661      -1611.340          19.911  
> 2018  4 30 11 53 14.9996979  0 18
G02  23444657.901    -3626418.4040        876.815          36.801  
G03  23952850.187     3883756.6371      -3492.346          20.406  
G06  21166194.149      195241.6980       -302.191          34.806  
G09  23651471.827    -1476705.9900       1590.927          34.083  
G17  21387621.458     -848070.0050        675.517          37.470  
G19  21431183.400    -1203710.1800       1067.073          36.693  
G23  24789055.894     -334044.6591        230.834          10.824  
G28  21082419.245     2069454.9720      -2492.032          24.017  
G30  25444719.088     1497307.6221      -2272.193           7.000  
R02  21209022.499     1464322.0550      -1727.814          26.643  
R18  21526443.353     -475534.4110        560.938          36.914  
R16  21627317.220      218466.7451       -591.467          24.190  
R15  22072666.111     3919968.0860      -3803.304          26.846  
R17  21704520.373      903882.8981       -790.539          22.983  
R03  20311437.584    -2088319.5530       2022.626          42.199  
R04  23188599.766    -2607977.7760       3978.878          37.264  
J01  37815187.490      837546.5410       -954.321          36.002  
E011684935089.125     1292604.9121      -1595.197          18.989  
> 2018  4 30 11 53 15.9996979  0 18
G02  23444498.711    -3627297.9310        878.697          35.907  
G03  23953496.539     3887248.6721      -3492.153          18.630  
G06  21166252.009      195542.6030       -301.198          36.839  
G09  23651170.535    -1478298.5870       1592.358          37.977  
G17  21387504.838     -848748.2531        677.793          36.280  
G19  21430961.554    -1204779.5660       1068.738          37.580  
G23  24789015.122     -334279.2191        231.628          12.342  
G28  21082910.305     2071946.5871      -2489.823          20.947  
G30  25445151.688     1499579.2141      -2272.193           7.000  
R02  21209365.462     1466045.3081      -1726.283          27.000  
R18  21526323.736     -476097.3861        562.502          33.530  
R16  21627381.375      219061.3331       -589.514          21.502  
R15  22073393.408     3923767.2861      -3798.250          26.248  
R17  21704741.020      904678.5061       -794.827          24.325  
R03  20311055.349    -2090342.5320       2022.326          40.967  
R04  23187859.579    -2611959.3720       3981.363          37.249  
J01  37815367.066      838498.5561       -949.346          33.897  
E011984727831.630     1294205.0291      -1602.544          22.928  
> 2018  4 30 11 53 16.9996979  0 18
G02  23444323.932    -3628178.7590        879.839          37.569  
G03  23954161.479     3890736.9041      -3491.950          18.577  
G06  21166305.072      195843.7310       -302.004          40.153  
G09  23650870.443    -1479891.6001       1594.267          36.759  
G17  21387380.724     -849424.5751        679.122          36.796  
G19  21430768.787    -1205850.8421       1071.270          37.153  
G23  24788938.975     -334506.2381        230.077          13.943  
G28  21083385.476     2074436.5311      -2490.343          20.452  
G30  25445583.089     1501849.2551      -2271.217           7.000  
R02  21209697.632     1467767.6121      -1726.095          27.860  
R18  21526221.207     -476660.2311        560.709          34.145  
R16  21627508.188      219648.3181       -589.106          24.195  
R15  22074116.507     3927565.8581      -3795.661          24.585  
R17  21704829.459      905472.5421       -798.042          25.891  
R03  20310665.019    -2092365.1890       2021.180          40.706  
R04  23187090.012    -2615942.2550       3982.108          35.581  
J01  37815547.841      839451.9431       -949.871          33.894  
E012284520603.810     1295817.6101      -1604.617          19.934  
> 2018  4 30 11 53 17.9996979  0 18
G02  23444157.248    -3629059.4810        880.296          37.663  
G03  23954871.388     3894227.8011      -3492.845          17.443  
G06  21166365.630      196145.3591       -301.649          38.093  
G09  23650564.955    -1481484.3910       1592.695          37.221  
G17  21387256.610     -850097.1031        675.841          33.045  
G19  21430560.732    -1206918.7651       1066.280          33.327  
G23  24788892.507     -334748.2421        231.246          14.925  
G28  21083862.146     2076930.3891      -2490.810          19.626  
G30  25446015.690     1504118.8821      -2270.242           7.000  
R02  21210022.307     1469495.9401      -1726.409          28.184  
R18  21526113.881     -477225.5731        561.963          34.298  
R16  21627646.092      220235.5360       -586.994          28.802  
R15  22074791.640     3931363.4011      -3802.609          24.268  
R17  21705024.624      906271.5201       -790.789          23.657  
R03  20310295.675    -2094387.0531       2022.499          40.780  
R04  23186383.401    -2619925.2641       3983.296          33.314  
J01  37815736.111      840405.2821       -952.030          34.453  
E012584313393.690     1297422.1851      -1606.447          19.104  
> 2018  4 30 11 53 18.9996979  0 18
G02  23443987.865    -3629940.1980        880.488          37.452  
G03  23955538.426     3897716.8381      -3494.175          17.788  
G06  21166416.295      196447.2711       -299.781          36.486  
G09  23650272.057    -1483077.1211       1592.158          36.143  
G17  21387118.406     -850771.5271        676.936          33.444  
G19  21430359.871    -1207990.0681       1069.958          35.611  
G23  24788853.534     -334973.4111        231.909          15.000  
G28  21084343.912     2079420.5051      -2492.869          22.746  
G30  25446447.091     1506386.9721      -2269.266           7.000  
R02  21210311.307     1471223.3901      -1729.159          27.761  
R18  21526023.344     -477787.8081        561.302          31.509  
R16  21627759.714      220823.2521       -586.817          26.805  
R15  22075502.148     3935161.4411      -3800.082          22.560  
R17  21705187.411      907069.1391       -793.667          23.544  
R03  20309925.731    -2096408.3150       2021.442          40.896  
R04  23185661.501    -2623908.4051       3979.028          29.703  
J01  37815906.693      841356.0261       -952.197          32.509  
E012884106131.390     1299026.3821      -1608.809          20.057  
> 2018  4 30 11 53 19.9996979  0 18
G02  23443819.082    -3630820.0810        880.397          35.010  
G03  23956200.068     3901203.6421      -3494.701          18.628  
G06  21166483.149      196749.7250       -302.033          38.882  
G09  23649957.275    -1484669.5460       1592.962          34.636  
G17  21386995.191     -851449.3251        675.472          33.710  
G19  21430155.712    -1209059.5521       1067.725          36.250  
G23  24788825.653     -335205.0711        230.353          15.085  
G28  21084807.092     2081921.3491      -2494.563          22.517  
G30  25446878.493     1508655.4151      -2268.290           7.000  
R02  21210662.964     1472957.7411      -1732.528          26.726  
R18  21525923.513     -478349.7621        562.124          29.745  
R16  21627855.947      221412.6151       -590.697          24.045  
R15  22076238.438     3938965.7031      -3803.169          20.788  
R17  21705331.312      907859.4591       -793.691          25.136  
R03  20309535.101    -2098428.4930       2020.136          39.931  
R04  23184920.713    -2627889.1531       3975.959          27.267  
J01  37816089.866      842303.1251       -952.885          31.972  
E013183898880.190     1300637.0081      -1606.187          18.955  
> 2018  4 30 11 53 20.9996979  0 18
G02  23443652.997    -3631699.8070        880.630          35.929  
G03  23956906.679     3904697.0521      -3495.304          19.053  
G06  21166537.411      197052.9710       -303.925          37.618  
G09  23649658.982    -1486261.2001       1591.896          34.603  
G17  21386862.683     -852126.6881        676.548          32.650  
G19  21429959.348    -1210124.8741       1068.681          34.962  
G23  24788789.078     -335437.1871        230.388          18.387  
G28  21085269.971     2084417.4661      -2496.160          22.853  
G30  25447310.194     1510923.7001      -2268.290           7.000  
R02  21211006.826     1474692.5661      -1731.851          26.302  
R18  21525816.188     -478911.8611        565.477          33.022  
R16  21627962.673      222002.3011       -591.157          23.509  
R15  22076891.386     3942771.2871      -3804.060          21.397  
R17  21705480.908      908651.0931       -793.937          25.611  
R03  20309162.160    -2100447.9560       2020.019          39.591  
R04  23184181.125    -2631870.0061       3981.711          29.237  
J01  37816278.135      843253.3281       -951.995          29.992  
E013483691646.080     1302248.5811      -1618.352          19.347  
> 2018  4 30 11 53 21.9996979  0 18
G02  23443487.511    -3632579.2151        876.873          36.441  
G03  23957565.323     3908188.4201      -3494.899          16.806  
G06  21166599.468      197355.8531       -303.376          35.259  
G09  23649349.596    -1487853.0571       1591.027          33.922  
G17  21386728.676     -852810.0831        675.902          33.181  
G19  21429755.189    -1211189.6801       1067.789          36.556  
G23  24788724.623     -335662.3421        230.817          18.284  
G28  21085730.752     2086910.9911      -2496.894          24.699  
G30  25447741.595     1513192.1561      -2268.290           7.000  
R02  21211293.427     1476425.0681      -1729.518          28.244  
R18  21525706.464     -479471.6341        563.895          31.042  
R16  21628102.376      222593.7230       -590.688          33.462  
R15  22077636.670     3946572.3421      -3804.951          22.241  
R17  21705588.834      909449.1671       -795.673          25.246  
R03  20308797.612    -2102466.0951       2018.433          38.844  
R04  23183479.611    -2635848.5321       3981.779          26.097  
J01  37816457.711      844205.2311       -954.407          31.811  
E013783484431.450     1303860.9331      -1602.758          18.437  
> 2018  4 30 11 53 22.9996979  0 18
G02  23443316.030    -3633458.0891        880.776          37.284  
G03  23958161.310     3911678.0081      -3496.368          18.294  
G06  21166645.336      197659.7461       -303.806          35.349  
G09  23649049.803    -1489444.7180       1591.236          37.726  
G17  21386600.964     -853496.7131        679.402          35.677  
G19  21429543.236    -1212258.1841       1066.344          37.191  
G23  24788672.159     -335891.8391        229.737          19.340  
G28  21086213.418     2089406.2111      -2496.704          25.225  
G30  25448172.996     1515459.4791      -2268.290           7.000  
R02  21211636.989     1478152.5901      -1732.691          26.424  
R18  21525604.234     -480030.5611        556.199          30.634  
R16  21628187.817      223188.0711       -597.179          30.078  
R15  22078368.164     3950369.0871      -3803.314          19.048  
R17  21705788.495      910243.6151       -795.333          24.675  
R03  20308421.372    -2104484.0920       2018.146          40.519  
R04  23182666.874    -2639827.5431       3979.866          28.063  
J01  37816645.981      845156.9851       -954.293          33.396  
E014083277197.040     1305476.9831      -1597.285          16.570  
> 2018  4 30 11 53 23.9996979  0 18
G02  23443139.752    -3634334.5111        877.829          34.405  
G03  23958842.738     3915170.7731      -3496.509          16.839  
G06  21166706.194      197964.0110       -304.915          37.593  
G09  23648751.510    -1491035.4931       1589.104          36.474  
G17  21386472.653     -854172.5611        674.446          38.196  
G19  21429352.568    -1213322.3601       1067.867          36.284  
G23  24788608.603     -336120.4081        228.996          17.547  
G28  21086683.193     2091903.8771      -2499.081          29.467  
G30  25448604.398     1517726.1791      -2267.315           7.000  
R02  21211961.365     1479893.1981      -1736.918          29.265  
R18  21525484.018     -480587.0271        556.940          30.203  
R16  21628318.527      223792.5501       -595.738          25.826  
R15  22079044.196     3954167.5211      -3805.758          20.743  
R17  21705907.813      911032.3681       -790.724          26.902  
R03  20308037.338    -2106500.5850       2015.719          39.905  
R04  23181925.787    -2643808.7821       3977.388          27.881  
J01  37816822.559      846109.6631       -952.633          32.933  
E014383069968.320     1307079.8251      -1611.706          20.391  
> 2018  4 30 11 53 24.9996979  0 18
G02  23442970.669    -3635213.1981        877.431          35.227  
G03  23959547.251     3918670.8441      -3496.522          18.353  
G06  21166764.654      198263.3001       -306.114          34.330  
G09  23648447.820    -1492626.2471       1590.146          36.976  
G17  21386339.845     -854848.8130        675.686          41.052  
G19  21429136.118    -1214384.5391       1066.136          35.873  
G23  24788573.228     -336347.3381        231.383          21.670  
G28  21087162.261     2094406.7501      -2499.184          33.973  
G30  25449036.099     1519993.2661      -2266.339           7.000  
R02  21212277.946     1481629.7791      -1734.425          30.851  
R18  21525396.778     -481145.2361        561.139          29.751  
R16  21628395.873      224387.1261       -596.557          25.021  
R15  22079755.303     3957969.7791      -3801.115          22.206  
R17  21706084.091      911829.1081       -794.046          27.370  
R03  20307653.304    -2108516.4071       2014.864          39.683  
R04  23181209.583    -2647787.0881       3976.906          25.120  
J01  37817007.530      847064.3491       -952.023          30.615  
E014682862725.810     1308698.1421      -1613.184          18.877  
> 2018  4 30 11 53 25.9996979  0 18
G02  23442804.284    -3636091.2761        876.711          36.535  
G03  23960193.303     3922164.5621      -3495.695          20.794  
G06  21166820.715      198568.6161       -304.912          34.842  
G09  23648144.130    -1494216.9520       1592.858          37.889  
G17  21386217.530     -855524.5321        675.950          39.224  
G19  21428930.160    -1215452.7081       1065.644          36.837  
G23  24788550.444     -336582.4441        224.020          19.875  
G28  21087635.634     2096901.6671      -2500.550          38.703  
G30  25449467.500     1522259.9941      -2267.315           7.000  
R02  21212614.612     1483370.8731      -1738.101          29.439  
R18  21525296.347     -481702.2361        561.580          29.468  
R16  21628525.983      224982.1791       -592.983          26.365  
R15  22080495.791     3961776.9931      -3805.079          19.599  
R17  21706192.616      912623.9211       -794.732          26.362  
R03  20307277.964    -2110532.1711       2015.312          38.413  
R04  23180498.775    -2651760.8141       3976.767          24.227  
J01  37817186.207      848014.4661       -950.986          29.008  
E014982655502.790     1310310.7971      -1618.703          20.628  
> 2018  4 30 11 53 26.9996979  0 18
G02  23442636.700    -3636969.1381        878.052          35.932  
G03  23960824.966     3925665.4201      -3496.551          20.624  
G06  21166879.474      198873.6391       -302.824          36.416  
G09  23647839.841    -1495807.1901       1588.122          39.549  
G17  21386085.921     -856200.8851        674.907          39.105  
G19  21428734.696    -1216516.8691       1069.779          38.231  
G23  24788515.668     -336810.7481        223.846          19.849  
G28  21088112.004     2099403.1231      -2499.391          37.999  
G30  25449898.902     1524525.1571      -2266.339           7.000  
R02  21212935.390     1485109.3921      -1736.720          29.344  
R18  21525178.829     -482260.8911        561.007          29.410  
R16  21628633.309      225578.9921       -596.667          26.952  
R15  22081201.202     3965585.6681      -3805.828          18.405  
R17  21706327.822      913420.8691       -796.086          27.770  
R03  20306908.020    -2112545.7921       2015.288          36.531  
R04  23179707.622    -2655736.7651       3973.847          24.595  
J01  37817363.684      848967.5521       -952.734          33.700  
E015282448264.484     1311924.5481      -1616.309          18.978  
> 2018  4 30 11 53 27.9996979  0 18
G02  23442473.613    -3637846.5521        877.520          35.750  
G03  23961465.922     3929165.1331      -3492.619          19.752  
G06  21166938.234      199179.6131       -306.341          37.491  
G09  23647539.149    -1497397.9850       1590.615          37.349  
G17  21385958.509     -856876.5111        674.417          39.740  
G19  21428530.537    -1217584.1491       1065.545          38.297  
G23  24788448.814     -337031.7581        224.362          21.801  
G28  21088584.177     2101903.6901      -2500.403          37.635  
G30  25450330.603     1526791.4401      -2265.364           7.000  
R02  21213269.359     1486846.5911      -1737.176          31.827  
R18  21525059.811     -482819.6621        560.835          32.999  
R16  21628745.731      226179.3081       -599.468          29.927  
R15  22081953.082     3969398.7841      -3807.458          19.225  
R17  21706511.895      914215.5501       -792.293          25.021  
R03  20306528.483    -2114559.9250       2012.973          39.025  
R04  23178930.260    -2659716.3681       3979.266          25.615  
J01  37817543.260      849921.0551       -954.596          34.280  
E015582241016.280     1313537.5851      -1607.819          20.970  
> 2018  4 30 11 53 28.9996979  0 18
G02  23442309.627    -3638722.6930        873.021          34.733  
G03  23962146.151     3932658.9581      -3491.863          18.205  
G06  21166994.595      199492.0701       -307.640          36.681  
G09  23647232.162    -1498987.6391       1589.512          38.009  
G17  21385826.301     -857551.7731        674.571          37.246  
G19  21428321.582    -1218651.8251       1066.821          37.173  
G23  24788383.459     -337254.2151        222.108          22.106  
G28  21089063.245     2104405.2550      -2502.112          37.373  
G30  25450762.304     1529057.9821      -2266.339           7.000  
R02  21213565.254     1488586.4001      -1738.978          33.031  
R18  21524965.077     -483379.5081        562.804          31.440  
R16  21628876.440      226776.7331       -600.130          29.897  
R15  22082676.781     3973207.7081      -3808.186          18.886  
R17  21706639.606      915014.2501       -794.051          25.187  
R03  20306151.344    -2116573.0800       2012.992          40.969  
R04  23178187.974    -2663699.5831       3980.784          23.907  
J01  37817727.332      850872.0461       -956.177          33.146  
E015882033782.766     1315154.5411      -1615.974          23.082  
> 2018  4 30 11 53 29.9996979  0 18
G02  23442118.059    -3639598.3191        876.148          33.685  
G03  23962801.498     3936145.6591      -3493.800          15.865  
G06  21167059.949      199797.3101       -304.784          34.043  
G09  23646931.170    -1500577.5360       1591.171          37.063  
G17  21385700.987     -858226.6201        673.281          38.102  
G19  21428123.119    -1219718.9731       1066.092          37.217  
G23  24788369.969     -337476.7231        225.687          21.956  
G28  21089533.919     2106908.1331      -2501.769          37.611  
G30  25451193.705     1531323.7201      -2266.339           7.000  
R02  21213889.330     1490322.9491      -1735.563          33.687  
R18  21524840.063     -483933.8451        561.979          31.984  
R16  21629001.154      227376.6151       -601.857          25.920  
R15  22083315.938     3977021.7001      -3810.362          20.455  
R17  21706793.999      915814.5281       -798.763          27.095  
R03  20305771.807    -2118585.1410       2012.889          40.626  
R04  23177479.265    -2667672.1051       3973.910          25.511  
J01  37817906.008      851825.6841       -956.362          34.451  
