     3.03           OBSERVATION DATA    M: Mixed            RINEX VERSION / TYPE
Geo++ RINEX Logger  Geo++               20180430 115542 UTC PGM / RUN BY / DATE
************************************************************COMMENT
This file was generated by the Geo++ RINEX Logger App       COMMENT
for Android devices (Version 1.2.4). If you encounter       COMMENT
any issues, please send an email to android@geopp.de        COMMENT
Note: Tracking signals and phase shifts by best knowledge   COMMENT
************************************************************COMMENT
Geo++                                                       MARKER NAME
GEODETIC                                                    MARKER TYPE
RINEX Logger user   Geo++                                   OBSERVER / AGENCY
7EX0217A17003237    HUAWEI              VTR-L29             REC # / TYPE / VERS
7EX0217A17003237    VTR-L29                                 ANT # / TYPE
 -2418298.0710  5386009.3115  2405177.6526                  APPROX POSITION XYZ
        0.0000        0.0000        0.0000                  ANTENNA: DELTA H/E/N
G    4 C1C L1C D1C S1C                                      SYS / # / OBS TYPES
R    4 C1C L1C D1C S1C                                      SYS / # / OBS TYPES
E    4 C1B L1B D1B S1B                                      SYS / # / OBS TYPES
C    4 C2I L2I D2I S2I                                      SYS / # / OBS TYPES
J    4 C1C L1C D1C S1C                                      SYS / # / OBS TYPES
  2018     4    30    11    56    0.9996636     GPS         TIME OF FIRST OBS
G                                                           SYS / PHASE SHIFTS
R                                                           SYS / PHASE SHIFTS
E                                                           SYS / PHASE SHIFTS
C                                                           SYS / PHASE SHIFTS
J                                                           SYS / PHASE SHIFTS
                                                            END OF HEADER
> 2018  4 30 11 56  0.9996636  0 19
G02  23407156.263    -3769521.2210        847.525          30.421  
G03  24053435.053     4466622.4900      -3532.170          23.659  
G06  21166018.770      248140.1960       -335.708          35.741  
G09  23591247.719    -1739204.0611       1571.325          26.081  
G17  21356339.614     -958283.5860        649.621          37.497  
G19  21387471.262    -1379156.1801       1044.286          17.974  
G23  24772142.203     -367972.8941        176.008          20.361  
G28  21152287.976     2489925.4561      -2572.347          18.607  
G30  25505438.452     1869851.3011      -2215.608           7.000  
R02  21254495.019     1761842.9371      -1861.758          17.475  
R18  21498488.906     -569515.0850        571.810          36.226  
R16  21637404.636      327171.4740       -718.101          32.991  
R15  22181125.027     4554084.9860      -3834.957          28.367  
R17  21718848.354     1035668.0660       -796.553          26.655  
R03  20240194.005    -2414858.8370       1909.777          36.938  
R04  23055184.628    -3268366.1890       3978.568          32.050  
J01  37835153.968      996407.3621       -963.817          24.451  
J02  36944131.510      109771.1371       -876.781          13.555  
E011450524851.234     1565588.1801      -1642.746          17.215  
> 2018  4 30 11 56  1.9996636  0 19
G02  23407023.755    -3770368.9970        847.482          31.792  
G03  24054042.733     4470154.9721      -3532.572          22.044  
G06  21166089.221      248475.6730       -335.320          33.225  
G09  23590956.920    -1740773.3450       1569.367          35.754  
G17  21356202.009     -958933.4160        649.921          33.667  
G19  21387265.005    -1380195.9851       1043.807          19.254  
G23  24772060.659     -368148.8641        177.103          23.126  
G28  21152809.315     2492499.3511      -2575.106          13.614  
G30  25505860.560     1872066.3081      -2215.608           7.000  
R02  21254842.479     1763702.4911      -1864.124          16.505  
R18  21498401.366     -570087.3320        572.522          34.925  
R16  21637537.445      327889.7480       -718.691          33.871  
R15  22181891.896     4557920.2900      -3835.366          29.084  
R17  21718991.055     1036464.1431       -796.441          25.103  
R03  20239852.242    -2416768.2810       1909.508          35.155  
R04  23054373.689    -3272345.2610       3978.975          32.245  
J01  37835356.028      997371.2790       -963.946          33.513  
J02  36944301.792      110648.1571       -877.059          16.697  
E011750317629.120     1567228.1131      -1641.026          19.790  
> 2018  4 30 11 56  2.9996636  0 19
G02  23406856.470    -3771216.6770        847.563          32.961  
G03  24054691.184     4473687.2551      -3531.013          20.505  
G06  21166150.679      248811.5270       -336.067          31.748  
G09  23590648.134    -1742342.6200       1569.038          38.373  
G17  21356072.499     -959583.0870        649.493          32.264  
G19  21387052.751    -1381242.3701       1043.841          21.499  
G23  24772050.766     -368324.3791        174.495          22.962  
G28  21153291.681     2495078.7011      -2575.789          14.635  
G30  25506281.769     1874280.7261      -2214.632           7.000  
R02  21255183.942     1765564.9011      -1864.516          21.186  
R18  21498281.449     -570659.5000        572.141          35.457  
R16  21637671.752      328608.6230       -719.293          35.028  
R15  22182638.979     4561756.0260      -3835.608          29.546  
R17  21719210.503     1037260.0341       -793.671          22.541  
R03  20239471.206    -2418677.0330       1908.239          32.379  
R04  23053623.908    -3276324.4070       3979.268          33.209  
J01  37835523.612      998335.2800       -964.122          35.756  
J02  36944450.189      111524.1971       -875.920          13.847  
E012050110397.400     1568858.9891      -1646.116          22.145  
> 2018  4 30 11 56  3.9996636  0 19
G02  23406682.291    -3772064.2490        847.385          31.858  
G03  24055408.587     4477219.6271      -3530.245          20.825  
G06  21166212.136      249147.4080       -336.213          30.327  
G09  23590348.342    -1743911.8930       1569.063          38.372  
G17  21355959.177     -960232.7880        649.398          33.677  
G19  21386895.960    -1382286.7441       1047.663          20.572  
G23  24772060.359     -368499.8050        175.321          25.644  
G28  21153747.965     2497652.2241      -2572.803          16.284  
G30  25506702.977     1876495.5241      -2214.632           7.000  
R02  21255574.272     1767427.7970      -1863.838          25.072  
R18  21498166.329     -571231.9220        572.249          34.753  
R16  21637814.453      329328.1110       -720.141          35.031  
R15  22183306.916     4565591.7860      -3836.141          28.474  
R17  21719279.756     1038055.6931       -793.178          22.214  
R03  20239078.178    -2420585.2700       1907.795          29.496  
R04  23052869.331    -3280303.6490       3979.246          33.582  
J01  37835713.680      999299.1220       -963.788          35.073  
J02  36944536.530      112400.5501       -876.203          13.668  
E012349903172.280     1570518.7701      -1665.447          21.664  
> 2018  4 30 11 56  4.9996636  0 19
G02  23406535.992    -3772911.6180        846.997          30.867  
G03  24056111.900     4480752.3941      -3535.667          21.764  
G06  21166272.694      249483.5080       -336.215          29.469  
G09  23590033.560    -1745480.9740       1569.079          37.822  
G17  21355838.661     -960882.2980        649.451          35.809  
G19  21386710.688    -1383332.2801       1048.069          19.798  
G23  24772022.885     -368674.5860        174.615          26.427  
G28  21154225.534     2500221.6461      -2575.088          15.876  
G30  25507125.385     1878709.1881      -2214.632           7.000  
R02  21255887.855     1769291.4150      -1863.961          25.543  
R18  21498063.800     -571804.3720        572.216          34.707  
R16  21637943.963      330048.4700       -720.815          35.116  
R15  22184021.322     4569427.6500      -3835.874          28.843  
R17  21719423.956     1038851.6361       -796.118          22.119  
R03  20238731.018    -2422492.7810       1907.023          30.372  
R04  23052120.149    -3284282.7950       3978.970          32.953  
J01  37835887.860     1000263.1430       -964.169          34.338  
J02  36944704.713      113314.9521       -876.616          13.157  
E012649695965.150     1572180.0441      -1672.687          23.069  
> 2018  4 30 11 56  5.9996636  0 19
G02  23406364.511    -3773758.9050        847.293          30.202  
G03  24056773.842     4484285.2700      -3532.779          23.902  
G06  21166326.657      249819.7800       -336.340          28.937  
G09  23589731.369    -1747049.9250       1568.693          37.474  
G17  21355715.446     -961531.5900        649.241          36.544  
G19  21386515.523    -1384384.5071       1047.103          17.191  
G23  24771990.208     -368849.3020        174.603          25.914  
G28  21154704.903     2502796.5611      -2574.245          18.180  
G30  25507546.593     1880922.9971      -2213.656           7.000  
R02  21256253.602     1771155.9620      -1864.957          25.378  
R18  21497966.368     -572376.8220        572.297          34.999  
R16  21638075.872      330769.5320       -721.514          34.829  
R15  22184758.811     4573263.6910      -3836.075          29.097  
R17  21719545.671     1039647.4811       -792.580          20.789  
R03  20238389.554    -2424399.6340       1906.572          32.476  
R04  23051384.159    -3288261.9930       3979.026          32.666  
J01  37836066.536     1001227.1880       -964.142          33.602  
J02  36944871.997      114187.8961       -876.880          12.375  
E012949488755.020     1573844.8711      -1670.639          24.318  
> 2018  4 30 11 56  6.9996636  0 19
G02  23406212.216    -3774605.9360        846.664          29.238  
G03  24057449.574     4487818.4571      -3531.952          24.331  
G06  21166388.414      250156.3120       -336.829          28.651  
G09  23589424.681    -1748618.7410       1568.596          37.104  
G17  21355597.627     -962180.7820        649.169          37.495  
G19  21386321.258    -1385435.7761       1047.088          12.182  
G23  24771955.132     -369023.5570        174.168          26.286  
G28  21155289.198     2505371.9191      -2575.058          20.447  
G30  25507967.801     1883136.6481      -2213.656           7.000  
R02  21256568.384     1773021.1521      -1865.157          24.592  
R18  21497869.834     -572949.4680        572.451          34.989  
R16  21638217.973      331491.3790       -722.556          34.141  
R15  22185495.101     4577099.9010      -3836.694          30.045  
R17  21719705.761     1040443.3331       -796.239          20.413  
R03  20238038.797    -2426305.7770       1905.809          34.279  
R04  23050631.080    -3292241.1440       3978.888          32.727  
J01  37836254.206     1002191.2610       -964.334          33.518  
J02  36945038.982      115066.5121       -876.480          11.961  
E013249281527.805     1575518.8511      -1673.915          25.595  
> 2018  4 30 11 56  7.9996636  0 19
G02  23406053.626    -3775452.5740        846.280          28.901  
G03  24058115.113     4491352.1391      -3533.998          23.944  
G06  21166452.270      250493.1950       -336.711          27.525  
G09  23589128.486    -1750187.1940       1568.224          37.489  
G17  21355478.910     -962829.5820        648.744          37.655  
G19  21386066.434    -1386486.0201       1045.174          10.058  
G23  24771875.388     -369197.2710        173.912          26.408  
G28  21155753.277     2507947.9681      -2578.560          22.488  
G30  25508389.010     1885349.7031      -2213.656           7.000  
R02  21256869.076     1774887.6051      -1865.446          23.817  
R18  21497767.905     -573522.0160        572.645          35.296  
R16  21638346.584      332214.1180       -722.978          33.790  
R15  22186230.192     4580936.5140      -3836.799          30.837  
R17  21719903.324     1041239.4601       -795.741          21.699  
R03  20237696.135    -2428211.1170       1905.002          35.930  
R04  23049907.381    -3296220.1560       3978.981          32.956  
J01  37836434.981     1003155.6550       -964.470          33.457  
J02  36945206.266      115940.6361       -874.116          11.101  
E013549074307.180     1577196.4651      -1674.665          25.947  
> 2018  4 30 11 56  8.9996636  0 19
G02  23405889.940    -3776299.0310        846.067          27.583  
G03  24058781.552     4494886.1230      -3534.088          24.314  
G06  21166538.011      250830.4400       -337.429          28.186  
G09  23588826.595    -1751755.4560       1568.130          37.375  
G17  21355346.102     -963478.1590        648.387          36.802  
G19  21385864.974    -1387534.0491       1043.691          11.385  
G23  24771845.708     -369370.5270        173.032          26.722  
G28  21156223.052     2510524.5811      -2578.150          24.173  
G30  25508810.218     1887562.1691      -2212.681           7.000  
R02  21257210.240     1776754.5971      -1867.108          23.097  
R18  21497653.084     -574094.4280        572.191          35.364  
R16  21638463.204      332937.7430       -724.111          32.799  
R15  22186926.311     4584773.3020      -3837.031          31.262  
R17  21720065.512     1042035.5461       -792.496          19.826  
R03  20237348.675    -2430115.6270       1904.023          36.372  
R04  23049151.305    -3300199.0790       3978.782          33.057  
J01  37836616.356     1004120.1420       -964.587          33.611  
J02  36945373.250      116822.1261       -874.397          10.669  
E013848867082.360     1578873.4881      -1677.787          26.310  
> 2018  4 30 11 56  9.9996636  0 19
G02  23405716.959    -3777145.2950        845.934          26.226  
G03  24059462.081     4498420.3250      -3534.313          24.495  
G06  21166608.162      251167.8540       -337.858          27.310  
G09  23588526.803    -1753323.5360       1568.004          37.185  
G17  21355220.788     -964126.5580        648.143          36.520  
G19  21385673.107    -1388525.7591       1044.544          12.938  
G23  24771811.232     -369543.5080        172.675          26.590  
G28  21156708.416     2513101.7410      -2577.440          24.894  
G30  25509231.427     1889775.0161      -2212.681           7.000  
R02  21257593.075     1778622.5960      -1868.302          24.301  
R18  21497545.459     -574667.0120        572.298          34.780  
R16  21638619.695      333662.1660       -724.910          32.877  
R15  22187637.118     4588610.3470      -3837.308          31.182  
R17  21720221.703     1042831.7701       -793.330          19.319  
R03  20237003.614    -2432019.3980       1903.117          34.942  
R04  23048423.109    -3304177.9240       3978.485          32.820  
J01  37836807.323     1005084.7030       -964.709          35.101  
J02  36945540.535      117696.8381       -875.498          10.522  
E014148659857.540     1580550.9871      -1677.166          26.660  
> 2018  4 30 11 56 10.9996636  0 19
G02  23405586.250    -3777991.3410        846.097          24.498  
G03  24060130.618     4501954.8630      -3534.714          25.545  
G06  21166673.817      251505.5790       -337.879          27.801  
G09  23588233.905    -1754891.3720       1567.842          37.068  
G17  21355102.970     -964774.6910        648.011          37.041  
G19  21385494.430    -1389571.1571       1043.751          13.228  
G23  24771785.150     -369716.0190        172.600          26.283  
G28  21157213.866     2515679.5191      -2576.177          25.161  
G30  25509652.635     1891986.7291      -2212.681           7.000  
R02  21257957.922     1780491.4100      -1869.414          24.024  
R18  21497435.435     -575239.4650        572.874          34.662  
R16  21638761.197      334387.4660       -725.677          33.045  
R15  22188338.333     4592447.6370      -3837.287          30.661  
R17  21720307.144     1043628.1851       -793.568          17.356  
R03  20236622.278    -2433922.3160       1902.533          33.854  
R04  23047693.414    -3308156.6610       3978.409          32.757  
J01  37836981.203     1006049.4810       -964.854          34.168  
J02  36945707.519      118576.1461       -877.397          10.584  
E014448452636.320     1582229.0491      -1679.214          26.468  
> 2018  4 30 11 56 11.9996636  0 19
G02  23405441.450    -3778837.2420        845.982          24.130  
G03  24060811.447     4505489.4990      -3534.600          26.137  
G06  21166728.978      251843.4120       -337.855          27.240  
G09  23587935.612    -1756459.1630       1567.537          37.170  
G17  21354976.158     -965422.7980        647.965          36.850  
G19  21385284.576    -1390613.9741       1043.100          14.692  
G23  24771751.573     -369888.2640        172.158          26.045  
G28  21157699.529     2518257.5820      -2578.198          26.235  
G30  25510073.843     1894198.5871      -2211.705           7.000  
R02  21258336.560     1782361.0081      -1870.060          24.805  
R18  21497323.013     -575812.0800        572.556          34.668  
R16  21638883.213      335113.3660       -726.184          32.548  
R15  22189081.219     4596284.9340      -3837.491          30.524  
R17  21720476.527     1044426.3721       -794.629          14.496  
R03  20236233.447    -2435824.6740       1901.893          31.799  
R04  23046945.432    -3312135.5490       3978.890          32.695  
J01  37837167.974     1007014.1440       -964.704          34.144  
J02  36945874.803      119449.2391       -873.994           9.724  
E014748245414.195     1583907.1731      -1671.776          25.627  
> 2018  4 30 11 56 12.9996636  0 19
G02  23405309.242    -3779682.9961        847.171          24.276  
G03  24061478.785     4509024.4850      -3535.313          26.544  
G06  21166787.738      252181.4670       -337.944          28.269  
G09  23587642.715    -1758026.7530       1567.444          37.060  
G17  21354851.744     -966070.6720        647.779          36.498  
G19  21385086.113    -1391656.3391       1046.404          18.295  
G23  24771693.713     -370060.0940        171.548          26.467  
G28  21158169.004     2520836.3000      -2579.170          26.694  
G30  25510493.853     1896410.2861      -2211.705           7.000  
R02  21258676.824     1784231.5180      -1871.145          24.848  
R18  21497215.687     -576384.6690        572.413          34.675  
R16  21639028.312      335840.1970       -727.539          32.764  
R15  22189813.911     4600122.5620      -3837.795          30.791  
R17  21720594.345     1045227.9011       -795.520          15.017  
R03  20235867.700    -2437726.2240       1901.202          30.743  
R04  23046212.739    -3316114.2560       3978.485          32.687  
J01  37837353.845     1007978.9990       -964.939          34.289  
J02  36946040.588      120324.7191       -875.559           9.588  
E015048038182.780     1585586.0081      -1665.495          24.838  
> 2018  4 30 11 56 13.9996636  0 19
G02  23405181.530    -3780527.4351        846.364          21.866  
G03  24062159.314     4512559.7670      -3535.447          26.304  
G06  21166859.988      252519.7630       -338.260          28.677  
G09  23587347.719    -1759594.0460       1567.132          36.717  
G17  21354724.032     -966718.3660        647.676          39.085  
G19  21384869.663    -1392700.2331       1043.496          16.063  
G23  24771670.329     -370231.4130        170.802          27.016  
G28  21158660.064     2523415.4360      -2579.524          27.684  
G30  25510915.061     1898621.3911      -2211.705           7.000  
R02  21259026.082     1786102.8010      -1871.602          24.538  
R18  21497108.362     -576957.3800        572.724          34.638  
R16  21639135.938      336567.7050       -727.516          32.839  
R15  22190536.711     4603960.3910      -3837.720          32.019  
R17  21720767.026     1046024.5641       -795.975          15.524  
R03  20235483.366    -2439627.0800       1900.269          29.182  
R04  23045443.172    -3320092.9080       3978.527          32.167  
J01  37837539.716     1008943.9630       -965.076          34.584  
J02  36946207.873      121201.8581       -876.644          12.214  
E015347830958.560     1587265.4401      -1669.530          21.522  
> 2018  4 30 11 56 14.9996636  0 19
G02  23404949.191    -3781372.6631        844.363          22.572  
G03  24062829.350     4516095.2820      -3535.519          27.280  
G06  21166927.441      252858.3950       -339.053          31.229  
G09  23587053.623    -1761161.1960       1567.024          37.811  
G17  21354613.709     -967365.7660        647.297          39.482  
G19  21384729.060    -1393745.1051       1041.201          14.265  
G23  24771643.648     -370402.4911        172.295          24.566  
G28  21159131.038     2525995.2160      -2580.059          27.819  
G30  25511336.269     1900831.9061      -2210.730           7.000  
R02  21259351.058     1787975.0341      -1873.104          23.728  
R18  21497002.535     -577529.9930        572.352          36.314  
R16  21639298.725      337296.1610       -728.758          33.316  
R15  22191270.303     4607798.5720      -3838.490          31.296  
R17  21720930.113     1046814.8771       -793.604          15.370  
R03  20235166.186    -2441527.2170       1900.008          30.515  
R04  23044728.766    -3324071.4970       3978.314          31.979  
J01  37837721.091     1009909.0830       -965.244          36.568  
J02  36946374.857      122076.1091       -875.890          18.018  
E015647623732.540     1588944.8241      -1664.313          20.459  
> 2018  4 30 11 56 15.9996636  0 19
G02  23404775.911    -3782217.6911        841.565          22.115  
G03  24063511.678     4519631.1160      -3535.891          27.573  
G06  21166982.603      253197.1650       -338.655          33.782  
G09  23586760.126    -1762728.2390       1566.987          37.792  
G17  21354491.693     -968013.0320        647.170          39.319  
G19  21384607.045    -1394788.1671       1042.332          18.974  
G23  24771607.673     -370573.2571        171.062          23.873  
G28  21159628.394     2528575.4150      -2580.182          26.951  
G30  25511756.279     1903042.0351      -2210.730           7.000  
R02  21259685.626     1789847.9491      -1870.743          22.917  
R18  21496897.008     -578102.7370        572.805          36.684  
R16  21639439.028      338025.2780       -729.452          33.766  
R15  22191941.239     4611636.7880      -3838.434          30.115  
R17  21721109.689     1047583.6971       -795.347          15.834  
R03  20234828.919    -2443426.6960       1899.177          33.493  
R04  23043999.071    -3328050.1100       3978.497          32.467  
J01  37837898.268     1010874.1890       -965.140          36.694  
J02  36946597.603      122953.9101       -881.138          17.612  
E015947416482.540     1590624.5421      -1683.868          21.034  
> 2018  4 30 11 56 16.9996636  0 19
G02  23404598.134    -3783062.6751        843.162          21.752  
G03  24064186.510     4523167.0240      -3536.308          27.713  
G06  21167044.360      253536.0920       -339.194          34.817  
G09  23586459.134    -1764295.2350       1566.816          37.890  
G17  21354360.384     -968660.2580        647.258          39.321  
G19  21384354.020    -1395831.3361       1042.857          19.347  
G23  24771577.094     -370742.3191        170.244          18.541  
G28  21160118.255     2531156.0810      -2580.989          25.945  
G30  25512177.487     1905251.5741      -2209.754           7.000  
R02  21259991.114     1791721.4451      -1871.154          21.954  
R18  21496785.185     -578675.6900        573.120          36.647  
R16  21639566.140      338755.0840       -730.398          33.677  
R15  22192634.359     4615474.9740      -3838.297          28.524  
R17  21721289.564     1048378.7781       -795.732          16.149  
R03  20234476.663    -2445325.4580       1897.826          34.355  
R04  23043239.397    -3332028.7950       3978.436          31.820  
J01  37838091.634     1011839.2860       -965.155          36.164  
J02  36946878.508      123830.8691       -876.309          18.939  
E016247209253.520     1592304.8301      -1696.317          19.650  
> 2018  4 30 11 56 17.9996636  0 19
G02  23404423.355    -3783907.3371        848.483          23.392  
G03  24064849.052     4526703.1230      -3536.417          27.674  
G06  21167109.115      253875.1670       -339.433          34.979  
G09  23586152.147    -1765862.1510       1566.987          37.576  
G17  21354235.071     -969307.3530        646.890          39.549  
G19  21384082.708    -1396874.1071       1042.792          21.956  
G23  24771715.298     -370906.9261        170.166          13.750  
G28  21160588.629     2533737.2681      -2581.853          24.002  
G30  25512598.695     1907461.4941      -2209.754           7.000  
R02  21260387.740     1793595.7441      -1874.411          22.488  
R18  21496652.677     -579248.6930        572.896          35.326  
R16  21639710.040      339485.5870       -731.044          34.051  
R15  22193336.173     4619313.4400      -3838.734          27.614  
R17  21721455.050     1049175.2171       -795.552          18.285  
R03  20234110.017    -2447223.6530       1897.682          34.004  
R04  23042509.403    -3336007.4960       3978.890          31.570  
J01  37838265.514     1012804.3840       -965.072          35.989  
J02  36947043.694      124709.9891       -876.806          16.769  
E016547002028.100     1593983.3581      -1698.873          19.685  
> 2018  4 30 11 56 18.9996636  0 19
G02  23404239.282    -3784752.0660        844.483          24.666  
G03  24065537.975     4530239.4320      -3536.322          27.802  
G06  21167176.569      254214.3920       -339.300          35.383  
G09  23585857.750    -1767428.8500       1566.426          37.513  
G17  21354114.554     -969954.2790        646.656          39.330  
G19  21383881.547    -1397916.7341       1041.205          22.895  
G23  24771541.719     -371076.8271        170.225          20.010  
G28  21161097.377     2536318.5991      -2581.072          21.994  
G30  25513028.298     1909670.2801      -2209.754           7.000  
R02  21260805.051     1795470.9400      -1875.487          24.013  
R18  21496565.737     -579821.7560        572.976          35.506  
R16  21639842.549      340216.8250       -731.361          33.987  
R15  22194033.191     4623151.9660      -3838.782          27.474  
R17  21721640.321     1049970.8661       -797.981          19.021  
R03  20233733.478    -2449121.1210       1897.302          32.853  
R04  23041760.221    -3339986.2230       3978.758          31.004  
J01  37838448.687     1013769.5800       -965.280          35.823  
J02  36947046.692      125590.2831       -877.473          18.798  
E016846794852.150     1595662.7841      -1689.353          21.983  
> 2018  4 30 11 56 19.9996636  0 19
G02  23404080.692    -3785596.5051        844.766          25.261  
G03  24066192.122     4533775.9240      -3536.516          27.231  
G06  21167235.628      254553.8380       -339.700          34.952  
G09  23585556.459    -1768995.5020       1566.460          37.406  
G17  21353986.243     -970601.1650        646.936          39.462  
G19  21383681.285    -1398959.4551       1042.009          23.278  
G23  24771517.136     -371245.4171        170.059          19.702  
G28  21161595.932     2538901.6841      -2579.817          19.272  
G30  25513439.913     1911879.2111      -2208.778           7.000  
R02  21261174.995     1797346.8450      -1875.987          25.495  
R18  21496458.112     -580394.9190        573.046          35.103  
R16  21639979.554      340948.8240       -732.163          33.774  
R15  22194719.116     4626990.6830      -3838.750          25.840  
R17  21721782.123     1050766.3231       -796.741          17.026  
R03  20233380.022    -2451017.8470       1896.117          30.580  
R04  23041031.426    -3343965.0270       3978.760          30.837  
J01  37838636.657     1014734.7780       -965.196          35.697  
J02  36947340.189      126470.2411       -877.457          17.096  
E017146587626.130     1597343.9701      -1694.597          22.328  
> 2018  4 30 11 56 20.9996636  0 19
G02  23403916.706    -3786440.9410        844.402          25.996  
G03  24066848.667     4537312.7710      -3536.863          25.850  
G06  21167293.787      254893.4870       -339.565          34.692  
G09  23585255.767    -1770561.9340       1566.092          37.009  
G17  21353861.229     -971247.7360        646.482          39.590  
G19  21383505.607    -1400001.7711       1041.398          23.831  
G23  24771434.992     -371414.7811        168.895          20.578  
G28  21162093.887     2541489.1401      -2580.391          19.024  
G30  25513859.922     1914087.9841      -2208.778           7.000  
R02  21261526.052     1799223.7090      -1877.459          26.580  
R18  21496353.184     -580968.1020        572.908          35.183  
R16  21640102.769      341681.6190       -733.432          33.326  
R15  22195478.490     4630829.7490      -3839.285          27.295  
R17  21721767.433     1051556.4841       -795.643          17.673  
R03  20233013.976    -2452913.8350       1895.436          28.869  
R04  23040283.144    -3347943.7250       3978.750          30.898  
J01  37838818.331     1015700.0890       -965.481          35.922  
J02  36947508.072      127353.0151       -877.110          18.390  
E017446380413.010     1599025.6061      -1683.136          22.569  
> 2018  4 30 11 56 21.9996636  0 19
G02  23403760.514    -3787285.0021        842.180          25.322  
G03  24067528.896     4540849.8110      -3537.281          26.747  
G06  21167364.538      255233.4320       -340.101          33.632  
G09  23584962.270    -1772128.2030       1565.926          37.407  
G17  21353733.818     -971894.1650        646.420          39.450  
G19  21383292.455    -1401044.1130       1042.227          25.123  
G23  24771408.011     -371583.8941        168.523          19.460  
G28  21162569.058     2544066.8441      -2582.016          18.819  
G30  25514279.932     1916296.1611      -2208.778           7.000  
R02  21261886.702     1801101.3140      -1878.365          27.534  
R18  21496225.473     -581541.3060        573.345          34.785  
R16  21640248.468      342415.1510       -734.145          33.659  
R15  22196197.992     4634668.8910      -3839.003          26.792  
R17  21721894.246     1052344.0301       -795.060          16.810  
R03  20232703.391    -2454809.2110       1895.269          30.168  
R04  23039555.548    -3351922.3240       3978.601          29.612  
J01  37838995.509     1016665.4800       -965.410          35.628  
J02  36947560.536      128232.2511       -876.846          17.726  
E017746173198.680     1600704.7131      -1681.826          23.083  
> 2018  4 30 11 56 22.9996636  0 19
G02  23403601.924    -3788128.9610        844.157          25.678  
G03  24068212.723     4544387.2130      -3537.580          27.239  
G06  21167430.193      255573.6670       -340.385          34.570  
G09  23584657.681    -1773694.2540       1565.775          36.786  
G17  21353607.905     -972540.3500        646.133          39.526  
G19  21383091.894    -1402086.0770       1042.036          25.218  
G23  24771390.623     -371751.7291        168.254          19.979  
G28  21163050.225     2546645.1511      -2581.934          21.159  
G30  25514701.140     1918503.7501      -2207.803           7.000  
R02  21262194.589     1802979.7500      -1879.185          27.161  
R18  21496116.948     -582114.4970        572.897          34.620  
R16  21640385.173      343149.4920       -734.838          33.384  
R15  22196948.672     4638508.4030      -3839.721          28.050  
R17  21722045.341     1053136.6011       -796.551          18.741  
R03  20232394.305    -2456703.7650       1894.028          32.228  
R04  23038755.402    -3355900.8890       3978.381          28.636  
J01  37839179.281     1017631.0850       -965.727          35.448  
J02  36947851.335      129108.8871       -877.478          14.367  
E018045965951.080     1602387.2431      -1682.064          21.584  
> 2018  4 30 11 56 23.9996636  0 19
G02  23403469.415    -3788972.5171        841.487          24.440  
G03  24068866.870     4547924.9480      -3538.577          26.870  
G06  21167492.550      255914.1760       -340.503          34.105  
G09  23584367.782    -1775260.0530       1565.754          36.242  
G17  21353482.592     -973186.3040        646.127          39.657  
G19  21382902.125    -1403127.8530       1041.759          26.348  
G23  24771370.237     -371918.9901        167.617          19.926  
G28  21163552.677     2549229.2271      -2585.924          21.995  
G30  25515121.449     1920711.7181      -2207.803           7.000  
R02  21262536.952     1804859.0760      -1879.647          27.165  
R18  21496024.912     -582687.7510        573.191          34.779  
R16  21640514.683      343884.7630       -735.532          33.584  
R15  22197667.575     4642348.0450      -3839.703          28.488  
R17  21722179.348     1053933.3571       -795.649          22.654  
R03  20232031.856    -2458597.5940       1893.557          35.091  
R04  23038061.382    -3359879.3310       3978.620          26.668  
J01  37839371.448     1018596.7780       -965.963          35.419  
J02  36948017.120      129986.3611       -877.988          13.160  
E018345758738.250     1604068.8891      -1677.476          20.349  
> 2018  4 30 11 56 24.9996636  0 19
G02  23403308.127    -3789816.0220        843.645          27.224  
G03  24069552.196     4551462.8340      -3538.270          26.746  
G06  21167559.703      256254.8770       -340.943          34.145  
G09  23584070.388    -1776825.6610       1565.201          36.504  
G17  21353365.673     -973832.0560        645.753          39.963  
G19  21382712.356    -1404169.5230       1041.774          26.042  
G23  24771370.537     -372087.1141        167.377          20.551  
G28  21164039.840     2551813.7891      -2586.737          23.274  
G30  25515541.158     1922918.5541      -2207.803           7.000  
R02  21262880.514     1806739.2640      -1880.990          27.259  
R18  21495910.990     -583260.9980        573.152          34.618  
R16  21640647.491      344620.8500       -736.776          33.256  
R15  22198404.464     4646188.0130      -3839.989          29.170  
R17  21722327.446     1054730.0011       -795.022          23.959  
R03  20231676.302    -2460490.6840       1892.514          35.962  
R04  23037390.147    -3363857.6941       3978.933          24.204  
J01  37839547.127     1019562.5530       -965.936          35.150  
J02  36948211.086      130864.0761       -878.260          14.310  
E018645551515.230     1605752.3241      -1685.026          20.215  
> 2018  4 30 11 56 25.9996636  0 19
G02  23403161.828    -3790659.1450        842.427          28.079  
G03  24070222.532     4555000.9290      -3537.514          25.996  
G06  21167627.456      256595.8290       -341.065          33.889  
G09  23583760.702    -1778391.1570       1565.422          36.332  
G17  21353246.955     -974477.6340        645.520          40.468  
G19  21382496.805    -1405210.9121       1043.689          25.717  
G23  24771334.562     -372254.1091        166.194          20.728  
G28  21164509.615     2554401.4341      -2586.034          21.017  
G30  25515961.467     1925125.5331      -2206.827           7.000  
R02  21263251.357     1808620.2370      -1881.479          27.113  
R18  21495807.262     -583834.3180        573.419          33.922  
R16  21640794.090      345357.7180       -737.466          32.950  
R15  22199120.968     4650028.0500      -3839.928          29.399  
R17  21722460.853     1055526.8341       -794.086          23.623  
R03  20231307.257    -2462383.1200       1892.008          36.068  
R04  23036482.075    -3367835.3211       3974.573          20.960  
J01  37839727.302     1020528.4450       -965.913          35.094  
J02  36948383.167      131740.1601       -877.282          13.841  
E018945344275.414     1607488.6991      -1678.238          20.424  
> 2018  4 30 11 56 26.9996636  0 19
G02  23403014.630    -3791502.2670        843.048          27.896  
G03  24070907.258     4558539.4640      -3538.470          26.709  
G06  21167698.207      256936.9060       -341.141          33.109  
G09  23583466.006    -1779956.5100       1565.050          36.347  
G17  21353129.136     -975123.0820        645.543          40.157  
G19  21382302.540    -1406252.2650       1041.009          26.236  
G23  24771365.141     -372420.9541        166.280          20.924  
G28  21165012.966     2556987.3261      -2588.683          22.547  
G30  25516382.676     1927332.3551      -2206.827           7.000  
R02  21263597.618     1810501.9700      -1882.437          26.942  
R18  21495703.834     -584407.6470        573.416          33.842  
R16  21640942.187      346095.2450       -738.012          33.786  
R15  22199796.101     4653868.2680      -3840.463          28.539  
R17  21722625.140     1056323.8881       -795.902          23.557  
R03  20230954.701    -2464274.8470       1891.433          35.314  
R04  23035722.701    -3371817.3581       3975.264          20.917  
J01  37839911.974     1021494.3040       -965.792          35.306  
J02  36948378.370      132597.0551       -877.215          13.723  
E019245137044.305     1609169.1791      -1692.597          20.612  
> 2018  4 30 11 56 27.9996636  0 19
G02  23402836.553    -3792345.3380        842.646          27.626  
G03  24071561.705     4562077.9390      -3538.645          26.172  
G06  21167761.164      257278.1300       -341.217          32.714  
G09  23583163.216    -1781521.8180       1565.098          36.697  
G17  21353006.521     -975768.4720        645.218          40.100  
G19  21382096.882    -1407293.5190       1040.818          26.197  
G23  24771288.993     -372587.4451        166.272          20.468  
G28  21165488.737     2559573.3721      -2586.789          22.706  
G30  25516802.685     1929538.5811      -2206.827           7.000  
R02  21263985.849     1812384.3860      -1882.924          27.008  
R18  21495586.915     -584981.1940        573.294          33.754  
R16  21641089.685      346833.4870       -738.929          34.090  
R15  22200517.701     4657708.6100      -3840.533          27.630  
R17  21722810.111     1057120.6030       -796.570          24.423  
R03  20230563.772    -2466165.9000       1890.388          33.340  
R04  23034920.157    -3375795.7381       3974.238          21.346  
J01  37840100.843     1022460.2060       -965.940          35.359  
J02  36948545.354      133471.5181       -877.662          13.437  
E019544929826.375     1610853.5681      -1692.026          21.341  
> 2018  4 30 11 56 28.9996636  0 19
G02  23402675.565    -3793188.1200        842.721          28.081  
G03  24072239.835     4565616.8400      -3539.164          25.971  
G06  21167828.018      257619.6840       -341.662          31.529  
G09  23582867.620    -1783086.9010       1564.983          37.532  
G17  21352890.502     -976413.6220        645.076          40.831  
G19  21381918.806    -1408334.5920       1040.973          26.816  
G23  24771264.710     -372753.7941        164.227          23.066  
G28  21165998.084     2562160.0141      -2586.769          23.507  
G30  25517222.694     1931744.2181      -2205.852           7.000  
R02  21264344.101     1814267.6560      -1883.236          27.005  
R18  21495471.795     -585554.7270        573.449          33.663  
R16  21641217.697      347572.4870       -739.292          34.552  
R15  22201233.906     4661549.1940      -3840.891          26.961  
R17  21722983.991     1057917.4910       -796.891          25.371  
R03  20230207.619    -2468056.1310       1890.260          32.293  
R04  23034499.548    -3379774.0381       3979.913          21.168  
J01  37840275.323     1023426.2380       -966.141          35.173  
J02  36948712.639      134348.4791       -876.269          13.280  
E019844722609.650     1612536.9511      -1696.203          18.782  
> 2018  4 30 11 56 29.9996636  0 19
G02  23402508.281    -3794030.6780        842.315          27.764  
G03  24072912.569     4569155.8660      -3539.239          25.674  
G06  21167897.270      257961.4750       -341.879          30.309  
G09  23582570.826    -1784651.7680       1564.502          37.544  
G17  21352766.987     -977058.5300        644.778          41.149  
G19  21381724.240    -1409375.4430       1040.281          27.495  
G23  24771216.444     -372919.6701        167.203          23.767  
G28  21166478.952     2564747.0681      -2586.312          24.269  
G30  25517642.704     1933950.2351      -2205.852           7.000  
R02  21264699.055     1816151.8010      -1884.980          26.718  
R18  21495350.379     -586128.3510        573.711          34.237  
R16  21641364.295      348312.3570       -740.407          34.597  
R15  22201992.081     4665389.9550      -3840.718          26.456  
R17  21723102.709     1058714.4970       -797.098          25.988  
R03  20229842.471    -2469945.5570       1888.543          32.370  
R04  23033713.792    -3383752.4101       3978.391          21.553  
J01  37840461.494     1024392.3530       -966.411          35.236  
J02  36948879.623      135222.8491       -875.673          12.662  
E010144515409.414     1614217.4851      -1672.254          18.932  
> 2018  4 30 11 56 30.9996636  0 19
G02  23402354.487    -3794872.6010        840.278          31.652  
G03  24073633.270     4572695.8200      -3541.757          27.585  
G06  21167957.828      258303.5210       -343.720          30.140  
G09  23582289.321    -1786216.1300       1563.191          38.365  
G17  21352643.473     -977702.9600        642.190          39.708  
G19  21381538.369    -1410416.5220       1041.046          26.795  
G23  24771151.988     -373084.1221        167.547          26.323  
G28  21166933.737     2567331.6641      -2588.981          22.595  
G30  25518061.514     1936155.1191      -2205.852           7.000  
R02  21265059.406     1818036.9071      -1881.560          24.049  
R18  21495236.757     -586701.4830        571.210          33.552  
R16  21641491.407      349053.5770       -744.320          34.848  
R15  22202764.946     4669230.8690      -3841.745          28.953  
R17  21723260.100     1059511.9810       -799.326          26.818  
R03  20229521.694    -2471834.0061       1888.866          30.943  
R04  23032778.439    -3387731.4411       3978.489          23.879  
J01  37840648.264     1025359.1840       -969.316          34.820  
J02  36949046.907      136099.3561       -875.305          12.881  
E010444308192.990     1615902.0161      -1679.739          18.932  
> 2018  4 30 11 56 31.9996636  0 19
G02  23402194.098    -3795710.7951        840.356          37.247  
G03  24074293.413     4576238.8981      -3545.378          29.237  
G06  21168003.696      258645.1820       -339.455          32.890  
G09  23581981.434    -1787778.3200       1561.615          37.553  
G17  21352512.763     -978344.6710        642.216          39.240  
G19  21381329.414    -1411457.5271       1039.877          24.165  
G23  24771160.682     -373245.0701        160.329          28.445  
G28  21167456.275     2569916.9581      -2587.229          25.918  
G30  25518481.823     1938360.1481      -2204.876           7.000  
R02  21265437.144     1819918.7011      -1883.862          25.014  
R18  21495160.910     -587273.4481        572.002          31.855  
R16  21641626.913      349797.7401       -747.415          31.176  
R15  22203444.875     4673072.2801      -3840.651          29.741  
R17  21723423.187     1060311.9451       -800.208          27.614  
R03  20229170.936    -2473721.0950       1888.125          38.254  
R04  23032149.475    -3391711.0741       3980.956          24.910  
J01  37840832.637     1026327.5541       -968.880          33.942  
J02  36949213.891      136974.0591       -876.496          13.545  
E010744100957.980     1617582.2561      -1686.157          22.354  
> 2018  4 30 11 56 32.9996636  0 19
G02  23402042.103    -3796548.8510        837.691          39.856  
G03  24074964.949     4579782.6421      -3544.640          31.385  
G06  21168093.034      258986.1321       -335.014          32.397  
G09  23581693.933    -1789340.9951       1563.019          33.998  
G17  21352401.240     -978986.6021        641.694          33.836  
G19  21381150.138    -1412496.9961       1040.852          21.853  
G23  24771128.904     -373406.0681        157.906          30.704  
G28  21167952.731     2572507.6771      -2587.320          25.149  
G30  25518903.331     1940565.9801      -2204.876           7.000  
R02  21265775.910     1821805.2621      -1889.131          24.965  
R18  21495065.576     -587842.7261        573.704          29.054  
R16  21641801.692      350544.0611       -746.634          27.239  
R15  22204172.471     4676916.1751      -3842.860          31.392  
R17  21723576.981     1061110.9971       -800.258          27.830  
R03  20228828.274    -2475607.7601       1886.457          35.597  
R04  23031421.279    -3395694.6441       3973.291          26.338  
J01  37841025.403     1027296.2191       -969.112          35.023  
J02  36949382.375      137852.3071       -877.173          15.010  
E011043893743.050     1619267.7571      -1682.834          23.756  
> 2018  4 30 11 56 33.9996636  0 19
G02  23401872.721    -3797386.4181        837.882          36.220  
G03  24075639.182     4583326.9990      -3545.999          31.707  
G06  21168146.097      259318.3911       -341.949          31.591  
G09  23581385.746    -1790903.1671       1563.115          34.026  
G17  21352285.221     -979626.5671        643.054          31.779  
G19  21380949.577    -1413532.7251       1037.817          22.020  
G23  24771068.946     -373573.1531        162.668          29.233  
G28  21168429.701     2575090.4341      -2588.302          25.186  
G30  25519325.738     1942772.7781      -2205.852           7.000  
R02  21266099.985     1823696.9411      -1887.446          23.097  
R18  21494929.170     -588419.9581        572.730          26.659  
R16  21641951.589      351285.9601       -743.938          24.946  
R15  22204873.386     4680760.1821      -3843.287          30.761  
R17  21723714.885     1061907.9031       -801.566          30.682  
R03  20228484.112    -2477497.2181       1887.183          33.700  
R04  23030679.292    -3399667.1371       3972.511          24.547  
J01  37841202.880     1028261.7351       -968.105          35.368  
J02  36949552.057      138730.5861       -878.464          17.054  
E011343686527.230     1620954.9571      -1689.876          24.307  
> 2018  4 30 11 56 34.9996636  0 19
G02  23401730.019    -3798222.8691        840.068          32.388  
G03  24076308.918     4586872.4001      -3541.909          27.730  
G06  21168225.842      259662.4961       -344.506          30.249  
G09  23581095.847    -1792464.3780       1558.079          36.323  
G17  21352157.209     -980266.8431        639.858          37.380  
G19  21380772.099    -1414570.0341       1039.397          20.964  
G23  24771049.160     -373744.8381        166.243          26.801  
G28  21168918.363     2577681.3101      -2590.539          26.179  
G30  25519747.846     1944978.8461      -2206.827           7.000  
R02  21266477.424     1825582.9111      -1888.920          21.952  
R18  21494877.306     -588987.3151        574.951          25.452  
R16  21642055.617      352027.6631       -741.289          21.503  
R15  22205594.087     4684602.1401      -3843.736          29.668  
R17  21723845.295     1062709.1821       -803.499          30.746  
R03  20228176.225    -2479382.8841       1885.110          30.027  
R04  23029898.333    -3403634.8621       3973.068          24.939  
J01  37841387.852     1029226.6211       -967.887          33.706  
J02  36949723.539      139607.7151       -876.632          13.124  
E011643479307.200     1622642.5571      -1688.088          24.520  
> 2018  4 30 11 56 35.9996636  0 19
G02  23401579.823    -3799068.6081        842.553          28.428  
G03  24077013.131     4590417.0271      -3543.239          26.524  
G06  21168299.591      260006.4141       -345.477          30.040  
G09  23580810.445    -1794025.8041       1559.216          33.235  
G17  21352048.384     -980906.2411        641.903          34.421  
G19  21380581.431    -1415614.0831       1036.827          20.330  
G23  24771006.889     -373916.4291        162.220          26.876  
G28  21169378.544     2580267.8591      -2586.651          27.347  
G30  25520167.855     1947184.0831      -2205.852           7.000  
R02  21266808.695     1827472.8081      -1890.424          25.185  
R18  21494733.406     -589559.1731        572.559          25.525  
R16  21642177.033      352771.7831       -742.920          21.650  
R15  22206330.977     4688450.9111      -3841.997          26.570  
R17  21724002.386     1063508.2891       -803.845          31.231  
R03  20227788.893    -2481265.3441       1878.985          27.764  
R04  23029150.951    -3407606.4811       3977.203          25.214  
J01  37841572.524     1030196.1681       -968.648          33.488  
J02  36949898.018      140488.2671       -877.751          14.001  
E011943272088.680     1624321.2941      -1693.541          24.422  
> 2018  4 30 11 56 36.9996636  0 19
G02  23401431.726    -3799909.8521        840.908          27.134  
G03  24077664.879     4593962.8371      -3546.079          29.060  
G06  21168367.044      260352.6781       -343.206          29.307  
G09  23580516.648    -1795588.3891       1559.826          30.987  
G17  21351929.966     -981552.7971        640.412          32.164  
G19  21380366.480    -1416643.0731       1031.910          19.749  
G23  24771002.092     -374074.0031        161.384          26.392  
G28  21169881.896     2582854.5791      -2586.482          30.661  
G30  25520588.164     1949388.7451      -2204.876           7.000  
R02  21267196.926     1829362.4991      -1887.923          24.511  
R18  21494615.587     -590129.6751        569.264          23.438  
R16  21642335.023      353515.4061       -745.167          22.349  
R15  22207040.586     4692290.3951      -3838.992          25.771  
R17  21724162.775     1064311.9651       -802.180          29.936  
R03  20227467.216    -2483148.7551       1878.051          24.743  
R04  23028512.093    -3411581.6751       3978.523          21.990  
J01  37841763.792     1031164.9361       -966.429          31.820  
J02  36950060.505      141360.7851       -877.042          15.730  
E012243064872.250     1625994.7741      -1696.725          23.705  
> 2018  4 30 11 56 37.9996636  0 19
G02  23401233.263    -3800756.5911        839.639          26.113  
G03  24078333.117     4597510.0181      -3545.893          26.281  
G06  21168409.615      260697.9631       -343.950          27.723  
G09  23580247.434    -1797146.3731       1563.921          28.443  
G17  21351793.261     -982192.9841        642.252          30.320  
G19  21380179.410    -1417681.4771       1035.665          20.430  
G23  24770916.951     -374237.1631        163.432          26.773  
G28  21170363.662     2585439.6881      -2588.908          34.126  
G30  25521007.874     1951593.0201      -2204.876           7.000  
R02  21267551.580     1831244.9591      -1890.721          22.943  
R18  21494559.226     -590705.1081        572.917          23.901  
R16  21642456.739      354260.5851       -750.076          22.595  
R15  22207775.977     4696128.3121      -3842.707          24.457  
R17  21724343.550     1065115.4201       -801.647          28.644  
R03  20227083.781    -2485032.9461       1887.306          25.295  
R04  23027737.729    -3415562.2061       3975.469          22.819  
J01  37841949.364     1032133.5821       -968.338          30.501  
J02  36950360.598      142235.2141       -877.768          15.118  
E012542857653.730     1627690.8701      -1701.037          23.505  
> 2018  4 30 11 56 38.9996636  0 19
G02  23401077.371    -3801600.2471        838.378          25.870  
G03  24079014.545     4601056.4961      -3542.875          22.496  
G06  21168469.274      261048.0451       -344.583          28.165  
G09  23579930.554    -1798707.1701       1560.563          28.811  
G17  21351694.030     -982833.0891        641.664          29.043  
G19  21379979.748    -1418725.5961       1038.913          22.312  
G23  24770901.662     -374402.3371        159.820          29.275  
G28  21170853.823     2588028.6111      -2591.799          34.502  
G30  25521426.984     1953796.7061      -2203.900           7.000  
R02  21267909.233     1833134.7831      -1892.102          25.141  
R18  21494476.484     -591279.5601        577.792          25.092  
R16  21642659.099      355011.6961       -753.703          20.059  
R15  22208428.025     4699973.5491      -3841.755          24.089  
R17  21724490.748     1065916.6281       -799.642          27.896  
R03  20226743.217    -2486918.9851       1886.726          25.144  
R04  23026886.318    -3419533.9701       3974.299          21.769  
J01  37842134.336     1033102.7891       -969.932          32.527  
J02  36950524.884      143108.4001       -879.119          14.258  
E012842650413.620     1629383.3681      -1693.453          24.978  
> 2018  4 30 11 56 39.9996636  0 19
G02  23400939.167    -3802441.7641        841.146          25.470  
G03  24079708.864     4604598.0681      -3544.918          18.133  
G06  21168552.016      261397.8701       -345.956          28.659  
G09  23579655.044    -1800263.9471       1556.107          26.433  
G17  21351560.322     -983468.5021        638.656          29.222  
G19  21379779.786    -1419757.1331       1037.401          22.833  
G23  24770863.888     -374557.8140        155.257          35.370  
G28  21171347.281     2590618.1840      -2590.941          34.661  
G30  25521844.894     1956000.7721      -2203.900           7.000  
R02  21268244.701     1835021.8221      -1891.218          24.398  
R18  21494332.883     -591853.6951        574.945          24.620  
R16  21642801.800      355766.9691       -747.272          19.756  
R15  22209205.387     4703813.2901      -3839.760          24.777  
R17  21724624.755     1066715.2291       -801.152          26.261  
R03  20226396.957    -2488805.1961       1879.736          26.151  
R04  23026230.073    -3423504.8881       3972.494          22.721  
J01  37842314.811     1034072.3421       -970.026          33.620  
J02  36950719.449      143994.4721       -879.858          13.498  
E013142443201.390     1631071.8871      -1691.371          26.187  
> 2018  4 30 11 56 40.9996636  0 19
G02  23400777.879    -3803281.6901        841.880          25.102  
G03  24080372.905     4608139.5251      -3545.591          16.866  
G06  21168612.874      261744.1051       -344.034          28.520  
G09  23579361.248    -1801829.0611       1561.489          26.248  
G17  21351456.894     -984109.1411        640.133          27.037  
G19  21379556.441    -1420799.5801       1043.235          22.282  
G23  24770811.424     -374713.4120        154.636          36.572  
G28  21171843.138     2593208.3531      -2590.158          38.149  
G30  25522262.505     1958204.6671      -2203.900           7.000  
R02  21268624.538     1836913.0511      -1893.622          24.966  
R18  21494239.648     -592423.5511        573.324          26.160  
R16  21642910.925      356523.3311       -748.907          21.296  
R15  22209856.836     4707650.5751      -3841.923          24.747  
R17  21724759.362     1067509.1161       -798.397          26.609  
R03  20226016.520    -2490685.1181       1877.915          24.911  
R04  23025446.715    -3427478.2001       3976.131          19.983  
J01  37842496.785     1035042.5591       -971.373          32.906  
J02  36950881.637      144870.0851       -877.627          13.551  
E013442235964.280     1632762.7251      -1692.102          26.085  
> 2018  4 30 11 56 41.9996636  0 19
G02  23400601.900    -3804115.3251        838.311          24.607  
G03  24081015.660     4611678.9251      -3545.481          16.017  
G06  21168673.432      262087.0911       -343.682          28.041  
G09  23579053.361    -1803395.8291       1561.921          29.351  
G17  21351327.384     -984746.9411        640.959          27.337  
G19  21379366.073    -1421845.7251       1039.191          25.245  
G23  24770807.527     -374868.5150        154.368          38.873  
G28  21172335.097     2595798.7750      -2590.291          40.257  
G30  25522680.116     1960407.9661      -2203.900           7.000  
R02  21268936.622     1838799.2791      -1888.560          24.199  
R18  21494171.595     -592996.2441        576.930          28.411  
R16  21643033.240      357271.5441       -750.264          21.329  
R15  22210634.498     4711493.7551      -3844.991          24.550  
R17  21724899.365     1068305.3301       -800.610          24.575  
R03  20225702.038    -2492558.2581       1880.529          24.700  
R04  23024727.813    -3431453.0471       3976.431          22.911  
J01  37842684.155     1036011.9931       -966.522          33.656  
J02  36951018.942      145748.3971       -878.172          12.812  
E013742028742.460     1634451.6841      -1688.346          24.101  
> 2018  4 30 11 56 42.9996636  0 19
G02  23400436.115    -3804950.7251        841.760          25.335  
G03  24081699.187     4615217.1931      -3545.295          17.509  
G06  21168736.389      262428.5071       -343.140          32.147  
G09  23578765.860    -1804958.2761       1560.784          29.357  
G17  21351202.970     -985388.8051        642.559          26.998  
G19  21379151.721    -1422881.7421       1034.616          29.916  
G23  24770768.854     -375024.0021        155.899          36.585  
G28  21172827.956     2598389.7180      -2591.205          39.242  
G30  25523099.226     1962610.6761      -2202.925           7.000  
R02  21269341.341     1840684.4381      -1890.183          23.850  
R18  21494034.589     -593577.0731        577.180          28.171  
R16  21643229.604      358021.9411       -750.846          24.058  
R15  22211362.694     4715332.0131      -3844.210          24.723  
R17  21725097.528     1069101.2931       -803.265          23.305  
R03  20225352.180    -2494444.0421       1880.008          24.747  
R04  23023990.323    -3435430.8821       3974.116          22.914  
J01  37842866.729     1036981.5610       -971.164          36.188  
J02  36951181.130      146624.3951       -878.133          13.604  
E014041821518.836     1636138.0851      -1690.542          24.457  
> 2018  4 30 11 56 43.9996636  0 19
G02  23400307.504    -3805798.9131        844.353          24.529  
G03  24082375.818     4618754.7861      -3543.200          15.825  
G06  21168802.343      262772.0081       -335.484          30.487  
G09  23578469.066    -1806517.9051       1561.341          29.798  
G17  21351088.149     -986030.1791        638.260          26.134  
G19  21378961.353    -1423917.5741       1035.059          31.624  
G23  24770731.080     -375178.5641        156.778          34.963  
G28  21173323.513     2600980.8181      -2591.108          35.317  
G30  25523516.837     1964813.0001      -2202.925           7.000  
R02  21269685.503     1842571.7841      -1893.849          24.716  
R18  21493953.046     -594154.8781        573.551          27.209  
