     3.03           OBSERVATION DATA    M: Mixed            RINEX VERSION / TYPE
Geo++ RINEX Logger  Geo++               20180430 120509 UTC PGM / RUN BY / DATE
************************************************************COMMENT
This file was generated by the Geo++ RINEX Logger App       COMMENT
for Android devices (Version 1.2.4). If you encounter       COMMENT
any issues, please send an email to android@geopp.de        COMMENT
Note: Tracking signals and phase shifts by best knowledge   COMMENT
************************************************************COMMENT
Geo++                                                       MARKER NAME
GEODETIC                                                    MARKER TYPE
RINEX Logger user   Geo++                                   OBSERVER / AGENCY
7EX0217A17003237    HUAWEI              VTR-L29             REC # / TYPE / VERS
7EX0217A17003237    VTR-L29                                 ANT # / TYPE
 -2418166.8068  5386110.0057  2405082.5090                  APPROX POSITION XYZ
        0.0000        0.0000        0.0000                  ANTENNA: DELTA H/E/N
G    4 C1C L1C D1C S1C                                      SYS / # / OBS TYPES
R    4 C1C L1C D1C S1C                                      SYS / # / OBS TYPES
E    4 C1B L1B D1B S1B                                      SYS / # / OBS TYPES
C    4 C2I L2I D2I S2I                                      SYS / # / OBS TYPES
J    4 C1C L1C D1C S1C                                      SYS / # / OBS TYPES
  2018     4    30    12     5   27.9995649     GPS         TIME OF FIRST OBS
G                                                           SYS / PHASE SHIFTS
R                                                           SYS / PHASE SHIFTS
E                                                           SYS / PHASE SHIFTS
C                                                           SYS / PHASE SHIFTS
J                                                           SYS / PHASE SHIFTS
                                                            END OF HEADER
> 2018  4 30 12  5 27.9995649  0 18
G02  23290683.895    -4225771.1580        772.488          31.915  
G03  24411242.149     6501639.4731      -3632.328          11.563  
G06  21178205.034      467870.8530       -429.058          40.796  
G09  23396962.420    -2604737.9620       1486.214          39.882  
G17  21261554.532    -1301015.9420        563.916          38.344  
G19  21249395.250    -1949226.5250        971.361          41.172  
G23  24734256.531     -412214.0841        -16.462          19.790  
G28  21414188.466     4021794.8090      -2820.587          23.458  
G30  25703904.657     3068308.3801      -2001.949           7.000  
R02  21445885.223     2940572.6111      -2283.014          23.933  
R18  21405857.233     -906173.5030        622.909          36.471  
R16  21706026.830      851660.0261      -1119.774          13.404  
R15  22562410.668     6749685.2840      -3893.547          32.663  
R17  21774162.761     1489720.9751       -802.940          26.418  
R03  20029524.449    -3384190.3000       1510.202          41.596  
R04  22604795.925    -5520577.0100       3965.671          30.449  
J01  37911110.884     1550853.7290       -983.658          32.895  
E011433010199.420     2570732.6861      -1873.977          15.811  
> 2018  4 30 12  5 28.9995649  0 18
G02  23290533.999    -4226543.3290        772.377          32.750  
G03  24411920.279     6505271.8451      -3632.695          13.045  
G06  21178282.980      468300.0200       -429.167          39.366  
G09  23396681.814    -2606223.8300       1485.841          40.560  
G17  21261453.202    -1301580.0840        564.170          39.025  
G19  21249204.882    -1950197.6430        970.983          41.133  
G23  24734289.208     -412197.6651        -16.593          18.089  
G28  21414758.071     4024615.9790      -2821.378          24.327  
G30  25704285.993     3070310.3241      -2001.949           7.000  
R02  21446349.901     2942857.2871      -2284.789          24.270  
R18  21405731.920     -906796.6840        622.850          35.637  
R16  21706207.305      852784.6881      -1121.162          15.071  
R15  22563140.963     6753579.0610      -3893.368          33.062  
R17  21774275.783     1490521.3881       -802.464          24.209  
R03  20029253.436    -3385700.0430       1509.357          42.258  
R04  22604044.646    -5524542.2930       3965.484          34.233  
J01  37911291.059     1551837.0380       -983.277          36.978  
E011732803041.160     2572603.8141      -1865.166          19.268  
> 2018  4 30 12  5 29.9995649  0 18
G02  23290388.000    -4227315.5370        772.559          32.933  
G03  24412608.003     6508904.6881      -3633.373          14.317  
G06  21178366.622      468729.1130       -428.906          38.603  
G09  23396405.106    -2607709.8940       1486.320          38.612  
G17  21261346.176    -1302144.1780        564.265          38.799  
G19  21249018.411    -1951168.8110        971.453          40.143  
G23  24734307.495     -412182.3401        -16.169          19.180  
G28  21415327.677     4027437.2111      -2823.655          23.015  
G30  25704667.029     3072311.6711      -2001.949           7.000  
R02  21446730.637     2945142.5330      -2285.648          25.227  
R18  21405604.209     -907420.0410        623.998          33.705  
R16  21706412.663      853904.9361      -1120.831          17.296  
R15  22563858.666     6757472.6450      -3893.441          33.757  
R17  21774495.830     1491321.9321       -799.643          25.094  
R03  20028971.931    -3387209.3080       1508.941          42.466  
R04  22603279.275    -5528507.7790       3965.223          33.489  
J01  37911482.027     1552820.1660       -982.841          38.611  
E012032595834.920     2574468.5771      -1876.492          19.950  
> 2018  4 30 12  5 30.9995649  0 18
G02  23290246.198    -4228087.7480        772.439          32.697  
G03  24413284.935     6512538.3111      -3633.228          15.160  
G06  21178440.371      469158.0690       -429.257          39.107  
G09  23396120.903    -2609195.7330       1485.864          40.426  
G17  21261234.654    -1302708.3190        564.116          38.707  
G19  21248834.338    -1952140.0530        971.468          41.168  
G23  24734332.978     -412166.7901        -16.652          21.142  
G28  21415833.427     4030258.6071      -2824.812          22.502  
G30  25705046.866     3074312.4311      -2000.974           7.000  
R02  21447176.429     2947428.4040      -2286.154          27.820  
R18  21405490.887     -908043.9730        623.899          35.258  
R16  21706609.927      855025.3821      -1122.155          15.712  
R15  22564596.155     6761366.0770      -3892.993          35.355  
R17  21774650.523     1492122.3210       -800.525          28.152  
R03  20028689.827    -3388717.9320       1508.243          43.268  
R04  22602530.094    -5532473.2460       3964.908          33.188  
J01  37911670.297     1553803.2950       -983.171          38.816  
E012332388637.380     2576337.6911      -1869.907          19.024  
> 2018  4 30 12  5 31.9995649  0 18
G02  23290103.497    -4228859.9130        772.697          32.122  
G03  24413976.556     6516171.0501      -3634.106          15.596  
G06  21178523.413      469587.0420       -429.147          39.041  
G09  23395831.603    -2610681.5100       1485.667          39.964  
G17  21261136.921    -1303272.4220        564.223          39.492  
G19  21248645.469    -1953111.3360        971.335          41.000  
G23  24734321.585     -412150.7761        -19.255          20.063  
G28  21416361.661     4033080.3611      -2819.931          22.170  
G30  25705428.202     3076313.5711      -2000.974           7.000  
R02  21447611.727     2949714.8240      -2286.130          26.857  
R18  21405367.672     -908668.1030        624.256          33.741  
R16  21706821.880      856149.1351      -1120.739          14.456  
R15  22565324.051     6765259.5260      -3893.198          34.573  
R17  21774792.025     1492922.6020       -800.130          27.264  
R03  20028407.722    -3390225.9550       1507.568          42.985  
R04  22601803.997    -5536438.7730       3965.273          33.590  
J01  37911858.866     1554786.2610       -983.037          38.782  
E012632181445.540     2578199.7911      -1857.940          20.098  
> 2018  4 30 12  5 32.9995649  0 18
G02  23289954.500    -4229631.9630        771.629          31.283  
G03  24414663.080     6519802.6201      -3633.106          15.073  
G06  21178602.259      470016.0550       -429.000          38.413  
G09  23395553.096    -2612167.2440       1485.765          38.596  
G17  21261025.698    -1303836.3700        563.682          39.687  
G19  21248461.696    -1954082.5770        971.101          40.526  
G23  24734339.573     -412134.7961        -18.549          18.652  
G28  21416912.680     4035902.3471      -2817.854          21.400  
G30  25705808.039     3078313.5761      -2000.974           7.000  
R02  21448050.624     2952001.9231      -2288.917          25.202  
R18  21405232.466     -909292.2690        624.247          32.227  
R16  21707041.928      857271.0801      -1123.951          14.120  
R15  22566037.557     6769152.9320      -3893.306          34.408  
R17  21774938.024     1493722.7370       -800.357          27.831  
R03  20028131.613    -3391733.3870       1507.209          43.056  
R04  22601052.117    -5540404.3940       3965.554          31.168  
J01  37912037.543     1555769.1940       -983.073          38.449  
E012931974262.990     2580059.8201      -1867.513          20.889  
> 2018  4 30 12  5 33.9995649  0 18
G02  23289812.398    -4230404.0200        771.803          30.380  
G03  24415355.301     6523434.1921      -3633.796          15.570  
G06  21178686.201      470445.3150       -429.448          38.869  
G09  23395262.297    -2613652.7490       1485.350          39.804  
G17  21260919.572    -1304400.1950        563.565          39.442  
G19  21248277.324    -1955053.5510        970.886          40.601  
G23  24734371.351     -412118.3241        -18.576          17.703  
G28  21417447.210     4038724.9841      -2818.831          20.042  
G30  25706188.176     3080313.7281      -1999.998           7.000  
R02  21448470.633     2954290.0141      -2287.949          24.526  
R18  21405144.627     -909916.4680        624.138          32.733  
R16  21707264.374      858395.2061      -1123.818          15.453  
R15  22566775.047     6773046.4550      -3893.712          34.958  
R17  21775053.444     1494523.0540       -799.924          27.967  
R03  20027851.307    -3393239.9360       1505.970          42.983  
R04  22600321.823    -5544369.6940       3964.593          31.328  
J01  37912227.911     1556752.2040       -983.104          37.806  
E013231767074.445     2581927.8731      -1871.172          17.803  
> 2018  4 30 12  5 34.9995649  0 18
G02  23289667.898    -4231175.9550        771.959          30.653  
G03  24416041.526     6527069.8911      -3634.667          18.994  
G06  21178773.740      470874.7990       -429.668          39.882  
G09  23394982.890    -2615138.0610       1485.187          40.829  
G17  21260811.946    -1304963.7390        563.473          40.078  
G19  21248097.748    -1956024.3480        970.571          41.188  
G23  24734356.661     -412101.5031        -16.558          20.970  
G28  21417976.344     4041547.8251      -2821.225          19.906  
G30  25706568.313     3082313.7211      -1999.998           7.000  
R02  21448922.720     2956578.6861      -2288.112          24.030  
R18  21405015.716     -910540.7300        623.979          33.736  
R16  21707454.142      859516.8111      -1126.212          19.032  
R15  22567494.549     6776939.9910      -3893.549          34.696  
R17  21775223.127     1495323.4410       -800.229          28.212  
R03  20027560.209    -3394745.7560       1505.315          43.523  
R04  22599576.539    -5548335.2340       3965.833          30.158  
J01  37912417.679     1557735.2730       -983.203          37.959  
E013531559886.500     2583789.7721      -1864.663          21.699  
> 2018  4 30 12  5 35.9995649  0 18
G02  23289523.398    -4231947.6630        771.620          32.620  
G03  24416743.940     6530703.1641      -3634.323          19.717  
G06  21178862.179      471304.4080       -429.843          40.928  
G09  23394701.985    -2616623.1600       1484.771          40.928  
G17  21260708.218    -1305527.1870        563.110          41.466  
G19  21247908.279    -1956994.9880        970.222          41.252  
G23  24734360.858     -412084.3011        -17.123          21.532  
G28  21418485.691     4044371.2491      -2823.706          22.979  
G30  25706949.049     3084313.1171      -1999.998           7.000  
R02  21449439.562     2958869.3331      -2291.414          20.627  
R18  21404935.372     -911165.1730        624.503          35.712  
R16  21707661.299      860641.9631      -1125.289          19.410  
R15  22568235.636     6780833.5880      -3893.759          33.338  
R17  21775432.082     1496123.7121       -801.372          27.485  
R03  20027284.999    -3396250.8550       1504.503          43.314  
R04  22598855.838    -5552300.4510       3964.823          29.767  
J01  37912597.855     1558718.3530       -983.297          37.303  
E013831352683.570     2585651.2901      -1880.852          21.713  
> 2018  4 30 12  5 36.9995649  0 18
G02  23289380.697    -4232719.1830        771.581          32.414  
G03  24417443.656     6534338.1841      -3635.601          17.879  
G06  21178936.228      471734.0950       -429.753          40.466  
G09  23394419.880    -2618108.0300       1484.718          40.871  
G17  21260598.494    -1306090.4030        563.082          41.989  
G19  21247729.603    -1957965.4950        970.440          41.402  
G23  24734320.087     -412066.7271        -18.705          20.681  
G28  21419047.202     4047195.0911      -2824.846          23.008  
G30  25707329.186     3086311.9261      -1999.022           7.000  
R02  21449878.458     2961164.8641      -2292.585          18.130  
R18  21404819.352     -911789.6540        624.407          34.930  
R16  21707923.617      861768.5881      -1125.474          18.530  
R15  22568963.831     6784727.2890      -3893.319          33.581  
R17  21775534.011     1496924.1101       -801.912          26.901  
R03  20026994.500    -3397755.1080       1503.867          43.152  
R04  22598102.459    -5556265.6710       3965.398          28.940  
J01  37912787.024     1559701.5290       -983.303          37.604  
E014131145501.620     2587518.8651      -1865.913          21.910  
> 2018  4 30 12  5 37.9995649  0 18
G02  23289230.501    -4233490.7100        771.484          32.044  
G03  24418122.086     6537973.3191      -3636.060          19.176  
G06  21179018.970      472163.9000       -429.665          40.037  
G09  23394142.872    -2619592.8420       1484.669          41.343  
G17  21260495.665    -1306653.5260        563.119          41.959  
G19  21247542.832    -1958935.9420        970.439          40.595  
G23  24734322.185     -412048.7241        -22.802          19.302  
G28  21419542.160     4050019.3061      -2824.119          22.194  
G30  25707709.023     3088310.3471      -1999.022           7.000  
R02  21450302.065     2963464.1591      -2293.062          14.838  
R18  21404706.330     -912414.3180        624.811          34.674  
R16  21708176.042      862895.7151      -1126.892          18.992  
R15  22569679.436     6788621.0270      -3893.833          33.364  
R17  21775698.598     1497724.3541       -800.643          25.120  
R03  20026713.295    -3399258.7500       1503.232          43.369  
R04  22597393.750    -5560230.9080       3965.219          27.954  
J01  37912977.092     1560684.6380       -983.168          37.638  
E014430938311.875     2589384.7041      -1863.718          22.814  
> 2018  4 30 12  5 38.9995649  0 18
G02  23289087.500    -4234262.1000        771.377          31.615  
G03  24418806.812     6541608.4601      -3635.109          16.477  
G06  21179099.315      472593.9170       -429.984          39.398  
G09  23393859.268    -2621077.4860       1484.547          41.913  
G17  21260386.541    -1307216.4620        563.018          40.565  
G19  21247355.162    -1959906.1940        970.160          40.291  
G23  24734356.062     -412030.4621        -20.821          18.588  
G28  21420079.687     4052843.8321      -2825.792          19.996  
G30  25708089.160     3090308.1801      -1998.047           7.000  
R02  21450686.998     2965760.0641      -2293.950          11.536  
R18  21404559.732     -913039.0250        624.572          34.468  
R16  21708384.698      864024.6281      -1128.264          17.285  
R15  22570413.628     6792514.7880      -3893.976          34.860  
R17  21775806.523     1498524.7260       -800.261          26.204  
R03  20026432.090    -3400761.6820       1502.572          43.405  
R04  22596664.954    -5564196.0690       3965.507          27.826  
J01  37913160.565     1561667.7880       -983.124          38.566  
E014730731140.720     2591239.6471      -1854.678          21.474  
> 2018  4 30 12  5 39.9995649  0 18
G02  23288929.510    -4235033.5110        771.717          31.234  
G03  24419496.634     6545239.2011      -3634.114          14.073  
G06  21179182.057      473023.8570       -429.931          40.298  
G09  23393580.461    -2622562.1090       1484.571          42.240  
G17  21260276.217    -1307779.3940        563.116          40.602  
G19  21247168.092    -1960876.5530        970.185          40.487  
G23  24734395.634     -412012.0611        -19.631          19.800  
G28  21420623.511     4055668.5291      -2823.754          18.817  
G30  25708469.297     3092306.3931      -1998.047           7.000  
R02  21451136.387     2968052.8541      -2295.267          12.840  
R18  21404451.806     -913664.0210        624.891          35.726  
R16  21708625.132      865149.2491      -1129.125          15.915  
R15  22571129.232     6796408.3890      -3893.660          34.376  
R17  21775958.817     1499324.9580       -799.938          26.855  
R03  20026155.681    -3402264.0040       1502.068          43.821  
R04  22595954.746    -5568161.2600       3965.576          27.633  
J01  37913353.631     1562650.8000       -982.865          38.703  
E015030523952.770     2593105.3971      -1855.044          20.168  
> 2018  4 30 12  5 40.9995649  0 18
G02  23288789.207    -4235804.6950        771.026          31.722  
G03  24420181.660     6548874.7841      -3633.343          17.375  
G06  21179265.100      473454.0680       -430.377          40.865  
G09  23393296.558    -2624046.4290       1484.136          42.449  
G17  21260173.688    -1308342.0680        562.534          40.966  
G19  21246987.617    -1961846.5170        969.883          40.822  
G23  24734377.647     -411993.2131        -19.086          21.229  
G28  21421146.049     4058489.7121      -2824.830          18.960  
G30  25708849.134     3094303.4721      -1998.047           7.000  
R02  21451597.468     2970343.2641      -2295.205          16.643  
R18  21404333.089     -914288.9780        624.932          36.691  
R16  21708828.691      866273.3111      -1127.886          17.284  
R15  22571854.131     6800302.1700      -3893.994          34.968  
R17  21776115.609     1500125.2960       -800.326          27.906  
R03  20025877.174    -3403765.4930       1500.830          44.597  
R04  22595185.778    -5572126.2250       3964.608          28.724  
J01  37913534.706     1563633.9670       -983.371          38.989  
E015330316764.530     2594970.8961      -1879.312          20.052  
> 2018  4 30 12  5 41.9995649  0 18
G02  23288637.512    -4236575.6100        770.773          31.518  
G03  24420857.692     6552510.6751      -3633.393          14.775  
G06  21179343.645      473884.6220       -430.764          40.404  
G09  23393008.457    -2625530.3920       1483.992          42.525  
G17  21260061.266    -1308904.3550        562.227          40.956  
G19  21246797.248    -1962816.2800        969.596          40.520  
G23  24734442.102     -411973.7831        -18.766          22.341  
G28  21421667.388     4061307.1761      -2826.091          17.754  
G30  25709229.271     3096300.6961      -1997.071           7.000  
R02  21451966.513     2972633.4291      -2297.241          16.543  
R18  21404207.176     -914913.8080        624.909          36.407  
R16  21709068.824      867406.3731      -1127.646          14.621  
R15  22572575.131     6804196.1870      -3893.866          34.238  
R17  21776233.727     1500925.8710       -800.358          27.967  
R03  20025596.568    -3405266.0840       1500.141          44.318  
R04  22594473.172    -5576090.9470       3963.999          28.970  
J01  37913721.177     1564617.3130       -983.429          38.770  
E015630109581.080     2596836.7181      -1872.590          20.093  
> 2018  4 30 12  5 42.9995649  0 18
G02  23288487.316    -4237346.2990        770.689          31.662  
G03  24421551.712     6556146.7561      -3634.209          16.347  
G06  21179425.189      474315.3970       -430.780          40.189  
G09  23392728.451    -2627014.0250       1483.513          42.019  
G17  21259955.439    -1309466.3800        562.029          41.071  
G19  21246610.777    -1963785.7200        969.186          40.307  
G23  24734452.295     -411953.9981        -19.943          23.117  
G28  21422193.824     4064133.8661      -2828.618          19.400  
G30  25709609.108     3098297.7621      -1997.071           7.000  
R02  21452401.511     2974928.2421      -2297.686          13.184  
R18  21404107.645     -915538.6550        624.666          35.805  
R16  21709238.207      868530.9281      -1128.331          13.761  
R15  22573303.927     6808090.4180      -3894.513          32.905  
R17  21776399.213     1501726.5630       -800.815          27.530  
R03  20025319.260    -3406765.7990       1499.283          44.054  
R04  22593707.502    -5580055.5320       3964.171          27.913  
J01  37913912.744     1565600.8350       -983.550          38.752  
E015929902392.234     2598711.9991      -1860.684          20.390  
> 2018  4 30 12  5 43.9995649  0 18
G02  23288350.910    -4238116.7570        770.294          34.765  
G03  24422254.425     6559783.1221      -3635.140          17.590  
G06  21179505.833      474746.4480       -431.314          40.023  
G09  23392440.650    -2628497.4260       1483.010          40.791  
G17  21259849.013    -1310028.1700        561.552          41.552  
G19  21246425.506    -1964755.0090        969.019          40.457  
G23  24734552.426     -411933.6971        -20.664          21.050  
G28  21422770.025     4066960.7571      -2827.739          21.995  
G30  25709988.945     3100294.2321      -1997.071           7.000  
R02  21452789.443     2977221.8131      -2298.727          14.116  
R18  21403984.130     -916163.4830        624.780          34.694  
R16  21709416.284      869664.6901      -1131.474          13.291  
R15  22574045.314     6811984.6990      -3894.364          31.455  
R17  21776559.901     1502527.3360       -800.971          27.610  
R03  20025041.352    -3408264.6960       1498.375          44.027  
R04  22592962.518    -5584020.0580       3964.183          29.341  
J01  37914094.419     1566584.4590       -983.757          38.097  
E016229695211.484     2600574.8521      -1850.913          20.111  
> 2018  4 30 12  5 44.9995649  0 18
G02  23288196.817    -4238886.9740        769.872          34.956  
G03  24422957.438     6563419.5681      -3634.811          16.899  
G06  21179595.471      475177.6440       -430.959          40.092  
G09  23392158.246    -2629980.5580       1483.073          40.714  
G17  21259737.490    -1310589.6560        561.357          41.134  
G19  21246240.234    -1965723.9860        969.236          39.759  
G23  24734552.725     -411912.9091        -18.821          20.376  
G28  21423298.859     4069788.3980      -2828.317          23.675  
G30  25710369.082     3102290.1141      -1996.096           7.000  
R02  21453216.347     2979507.3021      -2293.460          14.560  
R18  21403852.221     -916788.3470        624.869          34.738  
R16  21709589.564      870796.6881      -1131.252          12.772  
R15  22574785.201     6815879.2680      -3894.926          31.574  
R17  21776658.533     1503328.1750       -800.704          26.599  
R03  20024753.552    -3409762.7410       1497.660          43.658  
R04  22592213.336    -5587984.2750       3964.551          28.406  
J01  37914282.089     1567568.2170       -983.705          37.572  
E016529488019.945     2602451.8541      -1879.632          21.255  
> 2018  4 30 12  5 45.9995649  0 18
G02  23288048.420    -4239657.0390        769.940          32.333  
G03  24423652.058     6567060.9661      -3636.029          13.236  
G06  21179679.713      475609.2230       -431.757          39.815  
G09  23391876.741    -2631463.5030       1483.118          41.900  
G17  21259631.363    -1311150.8950        561.260          40.705  
G19  21246064.256    -1966692.6750        968.701          39.768  
G23  24734550.927     -411891.7651        -18.116          19.826  
G28  21423854.074     4072616.1681      -2826.597          21.962  
G30  25710748.919     3104285.6081      -1996.096           7.000  
R02  21453672.332     2981802.3691      -2296.766          16.096  
R18  21403753.890     -917413.1120        624.539          35.934  
R16  21709800.918      871927.1791      -1131.754          13.899  
R15  22575505.003     6819773.8750      -3894.404          34.270  
R17  21776792.840     1504129.1851       -802.325          24.125  
R03  20024471.747    -3411259.9780       1496.891          43.912  
R04  22591495.033    -5591948.4000       3964.260          28.365  
J01  37914473.656     1568552.0520       -983.659          38.763  
E016829280846.390     2604321.5971      -1870.135          22.009  
> 2018  4 30 12  5 46.9995649  0 18
G02  23287899.722    -4240427.1420        769.958          33.253  
G03  24424341.880     6570697.0541      -3636.521          16.008  
G06  21179759.757      476040.7140       -431.538          40.547  
G09  23391594.636    -2632946.3440       1482.554          41.367  
G17  21259528.834    -1311712.1530        561.207          40.647  
G19  21245880.183    -1967661.4860        968.840          40.724  
G23  24734468.784     -411870.1481        -20.069          18.661  
G28  21424400.896     4075444.3301      -2827.537          22.611  
G30  25711129.056     3106280.5151      -1995.120           7.000  
R02  21454101.934     2984102.4161      -2292.570          14.536  
R18  21403639.369     -918038.1500        625.226          36.041  
R16  21710044.049      873059.6531      -1134.078          14.836  
R15  22576231.100     6823668.3730      -3894.632          32.485  
R17  21776943.036     1504930.0731       -800.556          23.414  
R03  20024190.541    -3412756.6060       1496.248          43.948  
R04  22590757.244    -5595912.6890       3964.086          27.674  
J01  37914658.628     1569535.8080       -983.955          38.217  
E017129073683.625     2606196.4921      -1881.614          22.049  
> 2018  4 30 12  5 47.9995649  0 18
G02  23287764.216    -4241197.2380        769.827          34.567  
G03  24425032.602     6574335.4671      -3637.946          17.560  
G06  21179843.100      476472.2910       -431.629          40.748  
G09  23391310.433    -2634429.1180       1482.642          40.949  
G17  21259416.712    -1312273.3230        561.107          40.725  
G19  21245695.211    -1968630.2040        968.565          40.138  
G23  24734403.729     -411848.6091        -20.559          18.840  
G28  21424945.319     4078272.9190      -2828.539          23.954  
G30  25711507.993     3108275.8011      -1995.120           7.000  
R02  21454520.145     2986397.3501      -2296.888          17.735  
R18  21403516.454     -918663.4830        625.412          35.247  
R16  21710240.114      874192.2771      -1134.272          18.419  
R15  22576964.693     6827562.8620      -3894.856          32.408  
R17  21777124.111     1505730.9471       -801.142          23.482  
R03  20023918.030    -3414252.5110       1495.194          44.234  
R04  22590001.467    -5599876.8620       3963.914          28.362  
J01  37914843.600     1570519.4700       -983.772          37.464  
E017428866497.780     2608065.0981      -1878.672          22.146  
> 2018  4 30 12  5 48.9995649  0 18
G02  23287613.720    -4241967.2100        769.398          35.016  
G03  24425730.519     6577973.4091      -3638.272          18.148  
G06  21179921.046      476903.8210       -431.577          41.039  
G09  23391029.527    -2635911.7460       1482.423          41.017  
G17  21259316.282    -1312834.4340        560.951          41.639  
G19  21245512.338    -1969598.8260        968.478          40.376  
G23  24734386.640     -411826.8201        -21.251          18.217  
G28  21425475.952     4081101.7300      -2828.663          23.279  
G30  25711887.830     3110269.9521      -1995.120           7.000  
R02  21454930.261     2988700.1981      -2296.775          20.547  
R18  21403405.231     -919288.9480        625.602          35.372  
R16  21710422.387      875326.5441      -1135.627          18.255  
R15  22577691.090     6831457.2470      -3894.596          34.236  
R17  21777275.806     1506531.6110       -800.668          26.185  
R03  20023633.227    -3415747.8560       1494.948          44.541  
R04  22589278.368    -5603841.0760       3963.751          29.995  
J01  37915030.071     1571503.1070       -983.800          38.419  
E017728659296.340     2609938.2971      -1870.227          22.777  
> 2018  4 30 12  5 49.9995649  0 18
G02  23287469.820    -4242737.0210        769.535          32.656  
G03  24426415.544     6581604.5701      -3637.229          15.616  
G06  21180008.885      477335.6690       -432.085          41.111  
G09  23390739.628    -2637394.2120       1481.991          39.397  
G17  21259211.054    -1313395.2160        560.163          40.979  
G19  21245326.766    -1970567.2020        967.668          39.275  
G23  24734374.049     -411807.3971        -21.707          16.368  
G28  21426012.280     4083931.0291      -2829.292          22.833  
G30  25712266.768     3112264.2501      -1994.144           7.000  
R02  21455332.882     2991008.2581      -2311.015          29.984  
R18  21403281.117     -919914.2840        624.961          33.707  
R16  21710613.655      876461.3061      -1136.116          18.075  
R15  22578420.485     6835351.8190      -3894.901          35.362  
R17  21777429.000     1507332.4501       -800.327          25.474  
R03  20023353.221    -3417242.4890       1494.235          43.544  
R04  22588515.996    -5607805.2670       3963.811          31.734  
J01  37915221.338     1572486.8150       -983.981          39.314  
E018028452095.805     2611807.5351      -1872.971          20.888  
> 2018  4 30 12  5 50.9995649  0 18
G02  23287328.618    -4243506.4630        769.228          31.762  
G03  24427101.170     6585237.2141      -3633.991          10.550  
G06  21180085.632      477767.9450       -432.639          39.627  
G09  23390465.618    -2638876.2240       1481.647          41.522  
G17  21259098.632    -1313955.6260        560.307          39.942  
G19  21245145.392    -1971535.2390        967.810          39.211  
G23  24734373.749     -411792.2831        -20.884          15.789  
G28  21426577.089     4086760.9821      -2826.068          21.765  
G30  25712646.605     3114257.4261      -1994.144           7.000  
R02  21455812.850     2993323.1171      -2315.819          25.455  
R18  21403160.600     -920539.5260        625.051          34.722  
R16  21710811.818      877597.2701      -1137.717          17.274  
R15  22579151.379     6839246.7440      -3895.572          35.242  
R17  21777572.600     1508133.5570       -801.056          26.198  
R03  20023084.007    -3418736.0180       1492.877          43.913  
R04  22587796.794    -5611768.9570       3962.953          30.889  
J01  37915404.512     1573470.8300       -984.254          39.810  
E018328244930.945     2613678.7781      -1871.263          20.834  
> 2018  4 30 12  5 51.9995649  0 18
G02  23287175.124    -4244275.3680        768.427          31.252  
G03  24427799.986     6588871.8271      -3634.695          10.814  
G06  21180167.475      478200.6690       -433.045          39.830  
G09  23390176.618    -2640357.6080       1480.924          41.574  
G17  21258994.604    -1314515.4550        559.427          39.814  
G19  21244958.921    -1972502.7460        967.390          39.317  
G23  24734371.951     -411778.0501        -21.041          16.278  
G28  21427124.510     4089591.8251      -2830.366          19.719  
G30  25713025.543     3116250.7481      -1993.169           7.000  
R02  21456288.920     2995643.0831      -2317.232          23.198  
R18  21403056.572     -921164.5790        625.210          36.351  
R16  21711048.354      878732.9911      -1138.247          15.629  
R15  22579879.575     6843142.0010      -3895.570          35.192  
R17  21777722.197     1508935.2321       -802.416          25.693  
R03  20022803.402    -3420228.4080       1491.835          43.841  
R04  22587072.195    -5615732.2490       3962.666          29.160  
J01  37915595.180     1574455.2720       -984.764          39.631  
E018628037719.914     2615550.4831      -1863.840          19.099  
> 2018  4 30 12  5 52.9995649  0 18
G02  23287019.832    -4245043.9470        768.537          31.075  
G03  24428506.597     6592505.7521      -3635.925           9.954  
G06  21180248.419      478633.8820       -433.511          38.940  
G09  23389897.811    -2641838.6020       1480.879          40.234  
G17  21258889.377    -1315074.8570        559.056          40.743  
G19  21244774.249    -1973469.8350        966.668          38.561  
G23  24734361.758     -411759.9661        -21.815          15.438  
G28  21427632.059     4092423.3191      -2836.518          21.266  
G30  25713405.380     3118243.9121      -1993.169           7.000  
R02  21456656.766     2997958.6281      -2319.314          20.503  
R18  21402921.666     -921789.4590        624.955          37.621  
R16  21711270.500      879875.1561      -1139.985          14.445  
R15  22580602.974     6847037.5600      -3895.699          34.283  
R17  21777920.060     1509736.9991       -804.098          26.765  
R03  20022516.200    -3421719.7640       1490.661          42.608  
R04  22586301.729    -5619695.2520       3962.797          32.117  
J01  37915777.753     1575440.0080       -984.965          39.326  
E018927830555.950     2617418.5231      -1870.318          21.226  
> 2018  4 30 12  5 53.9995649  0 18
G02  23286877.430    -4245811.9590        767.642          32.484  
G03  24429199.117     6596141.2531      -3636.911           9.822  
G06  21180334.759      479067.5730       -433.683          39.555  
G09  23389612.108    -2643318.9610       1480.104          41.309  
G17  21258789.546    -1315633.6960        558.500          40.565  
G19  21244588.378    -1974436.3760        966.133          38.467  
G23  24734283.512     -411742.8401        -22.459          15.328  
G28  21428171.386     4095255.2421      -2836.846          19.826  
G30  25713784.318     3120236.4791      -1993.169           7.000  
R02  21457074.377     3000260.9891      -2304.816          22.331  
R18  21402813.141     -922413.9820        624.702          34.960  
R16  21711514.231      881010.9291      -1140.804          14.484  
R15  22581334.767     6850933.6120      -3896.472          35.041  
R17  21778035.480     1510539.2640       -802.121          28.349  
R03  20022230.498    -3423209.9310       1489.635          43.276  
R04  22585563.640    -5623657.7760       3962.080          33.137  
J01  37915970.520     1576425.1610       -985.252          39.394  
E019227623375.200     2619284.5501      -1867.849          20.716  
> 2018  4 30 12  5 54.9995649  0 18
G02  23286729.932    -4246579.4730        767.221          32.678  
G03  24429891.638     6599783.5791      -3638.303          11.843  
G06  21180413.905      479501.9250       -434.810          39.333  
G09  23389336.299    -2644798.7970       1479.639          41.354  
G17  21258679.822    -1316191.9080        557.811          40.781  
G19  21244409.701    -1975402.2860        965.806          38.859  
G23  24734232.547     -411704.4261        -23.204          14.673  
G28  21428734.696     4098088.3711      -2835.612          20.515  
G30  25714164.155     3122228.4591      -1992.193           7.000  
R02  21457518.669     3002567.8991      -2301.779          29.637  
R18  21402692.025     -923038.0300        623.976          33.808  
R16  21711778.349      882149.1261      -1138.723          15.211  
R15  22582080.051     6854830.1660      -3896.739          35.913  
R17  21778200.066     1511342.0650       -802.762          27.857  
R03  20021963.983    -3424698.9640       1488.357          43.539  
R04  22584841.440    -5627619.7700       3961.363          31.736  
J01  37916154.892     1577410.7750       -985.714          39.717  
E019527416180.960     2621154.6111      -1872.391          20.711  
> 2018  4 30 12  5 55.9995649  0 18
G02  23286592.627    -4247346.5990        766.732          32.656  
G03  24430584.159     6603419.4041      -3638.534          12.766  
G06  21180492.150      479936.6470       -435.001          39.203  
G09  23389053.595    -2646278.1490       1478.991          41.678  
G17  21258568.599    -1316749.7030        557.326          40.307  
G19  21244228.926    -1976367.8120        965.211          39.441  
G23  24734431.310     -411680.1701        -23.815          14.130  
G28  21429280.618     4100922.0801      -2835.285          19.061  
G30  25714543.092     3124220.8181      -1992.193           7.000  
R02  21457946.473     3004873.9940      -2306.679          30.149  
R18  21402581.701     -923661.9280        623.915          34.184  
R16  21711977.111      883285.7021      -1138.001          15.035  
R15  22582798.054     6858727.0410      -3896.880          36.094  
R17  21778373.945     1512144.9961       -801.328          26.621  
R03  20021684.576    -3426187.0220       1487.395          43.349  
R04  22584073.371    -5631581.4320       3961.209          30.206  
J01  37916342.262     1578396.6850       -986.081          39.747  
E019827208977.130     2623028.6961      -1870.669          21.160  
> 2018  4 30 12  5 56.9995649  0 18
G02  23286448.427    -4248113.3660        766.640          33.198  
G03  24431261.989     6607055.5801      -3635.727          13.523  
G06  21180576.692      480371.8880       -435.199          39.930  
G09  23388773.589    -2647757.0670       1478.347          40.902  
G17  21258462.473    -1317307.0420        556.840          39.709  
G19  21244044.254    -1977332.9240        964.953          39.856  
G23  24734433.708     -411652.9521        -23.427          14.171  
G28  21429824.741     4103756.5631      -2834.993          20.194  
G30  25714922.030     3126212.0431      -1992.193           7.000  
R02  21458374.876     3007181.0410      -2307.673          30.277  
R18  21402456.987     -924285.5420        623.671          34.579  
R16  21712183.068      884428.8081      -1142.502          18.822  
R15  22583545.737     6862624.1790      -3897.223          36.990  
R17  21778516.347     1512948.3310       -802.306          26.426  
R03  20021403.071    -3427674.0390       1486.448          43.724  
R04  22583340.679    -5635542.7010       3960.862          30.247  
J01  37916533.830     1579382.8730       -986.219          40.303  
E010127001804.480     2624896.4801      -1873.779          22.024  
> 2018  4 30 12  5 57.9995649  0 18
G02  23286312.921    -4248879.5711        765.485          31.331  
G03  24431969.799     6610693.3001      -3638.078          12.663  
G06  21180675.024      480807.4161       -437.733          36.112  
G09  23388485.788    -2649235.4380       1478.452          38.125  
G17  21258365.040    -1317864.0290        556.910          38.721  
G19  21243876.370    -1978297.9601        962.532          34.900  
G23  24734474.180     -411629.5801        -24.968          13.311  
G28  21430350.277     4106591.8291      -2835.692          19.471  
G30  25715302.167     3128204.1821      -1991.218           7.000  
R02  21458803.280     3009489.1730      -2308.284          29.794  
R18  21402356.257     -924909.2570        623.455          32.281  
R16  21712421.403      885573.5161      -1141.221          18.822  
R15  22584274.532     6866521.8310      -3897.306          37.454  
R17  21778670.140     1513751.9410       -803.455          29.676  
R03  20021121.866    -3429160.0350       1485.443          37.783  
R04  22582577.707    -5639503.6630       3961.427          32.803  
J01  37916715.204     1580369.4530       -986.488          37.481  
E010426794606.336     2626767.1671      -1873.580          20.218  
> 2018  4 30 12  5 58.9995649  0 18
G02  23286150.134    -4249647.9220        770.374          35.392  
G03  24432662.320     6614332.0031      -3639.993          12.498  
G06  21180735.882      481243.0140       -434.894          37.808  
G09  23388219.573    -2650714.1880       1478.552          38.105  
G17  21258246.023    -1318422.2230        560.316          38.149  
G19  21243672.811    -1979263.9240        966.043          38.659  
G23  24734433.108     -411604.8101        -25.298          19.641  
G28  21430887.206     4109426.9231      -2834.807          23.389  
G30  25715681.104     3130196.5771      -1992.193           7.000  
R02  21459237.079     3011796.6121      -2308.376          30.086  
R18  21402221.950     -925533.4651        623.777          32.802  
R16  21712604.277      886718.9101      -1142.904          23.036  
R15  22584996.432     6870416.8820      -3891.041          35.136  
R17  21778807.745     1514553.8121       -800.681          30.335  
R03  20020855.050    -3430645.2220       1484.991          40.988  
R04  22581845.314    -5643466.1190       3964.905          32.736  
J01  37916911.269     1581355.2140       -982.566          35.624  
E010726587418.690     2628641.4641      -1875.379          21.437  
> 2018  4 30 12  5 59.9995649  0 18
G02  23286013.428    -4250417.9780        768.967          37.464  
G03  24433354.840     6617969.0981      -3637.949          12.579  
G06  21180830.916      481678.3441       -435.414          37.320  
G09  23387930.872    -2652193.8840       1478.734          37.853  
G17  21258144.093    -1318980.5701        560.057          37.409  
G19  21243494.735    -1980230.6151        966.936          38.620  
G23  24734396.234     -411581.7641        -23.052          18.803  
G28  21431396.853     4112260.6741      -2835.070          22.624  
G30  25716060.042     3132188.9361      -1992.193           7.000  
R02  21459632.506     3014103.8261      -2305.365          29.507  
R18  21402106.230     -926158.4001        624.836          35.720  
R16  21712776.358      887859.3791      -1138.015          24.377  
R15  22585722.230     6874309.2821      -3890.596          33.654  
R17  21778990.619     1515351.4211       -797.929          28.061  
R03  20020578.042    -3432130.8990       1484.889          39.899  
R04  22581126.411    -5647431.1661       3966.629          35.406  
J01  37917095.341     1582340.2711       -985.714          33.862  
E011026380226.250     2630522.0661      -1875.516          21.760  
> 2018  4 30 12  6  0.9995649  0 18
G02  23285866.230    -4251188.4020        768.239          35.525  
G03  24434047.661     6621613.6291      -3640.760          12.412  
G06  21180915.757      482112.5411       -437.529          36.825  
G09  23387652.665    -2653673.5630       1479.928          38.598  
G17  21258036.168    -1319540.8931        556.109          34.477  
G19  21243318.157    -1981195.6911        964.007          38.088  
G23  24734441.203     -411554.9921        -24.331          17.502  
G28  21431959.863     4115097.7931      -2839.067          25.141  
G30  25716438.680     3134180.1611      -1992.193           7.000  
R02  21460091.788     3016410.1201      -2303.911          35.228  
R18  21401982.716     -926784.8621        625.300          35.239  
R16  21713050.368      889000.2091      -1139.129          24.985  
R15  22586457.021     6878200.8750      -3891.780          34.614  
R17  21779143.213     1516144.8261       -800.161          28.209  
R03  20020299.535    -3433614.8121       1483.363          38.987  
R04  22580370.934    -5651388.5571       3960.482          33.254  
J01  37917286.609     1583324.4271       -981.034          34.351  
E011326173066.190     2632384.0581      -1881.904          23.186  
> 2018  4 30 12  6  1.9995649  0 18
G02  23285700.445    -4251959.4751        768.739          33.593  
G03  24434740.181     6625253.4371      -3641.409          12.468  
G06  21181000.598      482549.4201       -436.199          35.772  
G09  23387373.258    -2655153.1310       1479.947          38.466  
G17  21257930.341    -1320099.8261        560.388          36.942  
G19  21243125.390    -1982162.0251        966.038          35.590  
G23  24734420.517     -411526.6711        -25.524          20.345  
G28  21432482.701     4117938.7751      -2839.026          23.268  
G30  25716817.618     3136171.5321      -1991.218           7.000  
R02  21460523.189     3018718.8291      -2304.999          33.770  
R18  21401880.786     -927411.1181        625.946          36.353  
R16  21713231.443      890142.0061      -1143.138          24.542  
R15  22587172.326     6882093.0641      -3892.566          31.840  
R17  21779271.824     1516943.1021       -801.506          28.175  
R03  20020013.833    -3435098.5250       1482.014          39.348  
R04  22579629.848    -5655349.5831       3964.970          31.977  
J01  37917467.683     1584309.3850       -985.484          34.508  
E011625965888.130     2634259.7591      -1878.291          21.482  
> 2018  4 30 12  6  2.9995649  0 18
G02  23285574.232    -4252724.8781        768.874          33.826  
G03  24435515.744     6628887.9971      -3641.414          13.063  
G06  21181076.146      482987.2091       -437.530          36.671  
G09  23387089.055    -2656632.4320       1477.738          39.630  
G17  21257828.112    -1320657.5421        557.543          33.853  
G19  21242944.615    -1983128.0491        967.509          35.944  
G23  24734428.312     -411501.5731        -26.765          20.131  
G28  21433039.416     4120770.4081      -2833.418          22.836  
G30  25717196.256     3138160.8181      -1991.218           7.000  
R02  21460964.483     3021028.7161      -2308.523          31.214  
R18  21401771.062     -928034.6001        622.210          33.802  
R16  21713444.895      891287.8471      -1144.041          24.988  
R15  22587923.606     6885985.5421      -3896.030          30.768  
R17  21779420.821     1517747.8641       -799.984          28.848  
R03  20019735.326    -3436581.6160       1482.348          38.847  
R04  22578913.643    -5659312.2261       3961.301          30.760  
J01  37917655.353     1585294.3820       -985.278          34.180  
E011925758698.984     2636129.9821      -1882.224          20.830  
> 2018  4 30 12  6  3.9995649  0 18
G02  23285420.139    -4253494.2420        768.412          39.221  
G03  24436216.659     6632525.7731      -3638.765          12.905  
G06  21181156.490      483423.5161       -438.200          35.608  
G09  23386810.848    -2658110.9790       1476.968          39.752  
G17  21257713.591    -1321216.0871        556.104          33.929  
G19  21242756.945    -1984093.9321        963.646          35.571  
G23  24734421.117     -411469.0431        -28.418          20.836  
G28  21433608.721     4123606.2271      -2837.298          21.326  
G30  25717573.694     3140149.4581      -1989.266           7.000  
R02  21461381.795     3023339.0151      -2308.939          33.944  
R18  21401666.135     -928657.9871        620.320          31.344  
R16  21713668.540      892431.9180      -1145.153          30.267  
R15  22588647.904     6889883.2851      -3894.236          29.971  
R17  21779560.824     1518547.1791       -799.936          29.885  
R03  20019470.309    -3438063.2250       1482.529          38.326  
R04  22578114.397    -5663277.3941       3959.826          28.791  
J01  37917853.216     1586279.5051       -987.213          32.858  
E012225551481.960     2638002.4241      -1881.340          20.071  
> 2018  4 30 12  6  4.9995649  0 18
G02  23285266.945    -4254261.3691        770.005          35.135  
G03  24436907.981     6636163.6441      -3639.136          12.803  
G06  21181252.124      483860.5501       -438.784          35.110  
G09  23386522.148    -2659589.7001       1477.442          36.364  
G17  21257605.666    -1321774.8840        559.073          36.613  
G19  21242572.873    -1985059.7481        964.393          35.087  
G23  24734397.733     -411443.5691        -27.241          21.565  
G28  21434103.079     4126448.2741      -2835.435          22.810  
G30  25717952.932     3142138.4981      -1988.291           7.000  
R02  21461818.892     3025646.4481      -2309.455          31.934  
R18  21401554.612     -929276.6531        623.174          30.205  
R16  21713904.177      893576.4051      -1144.514          29.435  
R15  22589381.497     6893776.3061      -3893.274          28.079  
R17  21779748.194     1519349.8481       -800.853          27.215  
R03  20019184.307    -3439543.7461       1481.762          36.253  
R04  22577418.578    -5667231.1031       3955.350          28.079  
J01  37918033.991     1587264.7291       -986.118          31.009  
E012525344323.695     2639873.2581      -1862.940          20.431  
> 2018  4 30 12  6  5.9995649  0 18
G02  23285127.841    -4255031.4971        768.320          34.174  
G03  24437566.325     6639807.5861      -3640.225          13.913  
G06  21181326.773      484297.2951       -434.802          33.002  
G09  23386241.842    -2661068.2950       1478.499          37.457  
G17  21257502.237    -1322329.2951        558.132          37.004  
G19  21242401.092    -1986024.5711        963.158          34.823  
G23  24734437.006     -411416.6441        -25.561          20.229  
G28  21434638.209     4129286.2731      -2838.540          21.672  
G30  25718331.869     3144127.9431      -1989.266           7.000  
R02  21462256.289     3027954.7571      -2308.856          30.745  
R18  21401428.999     -929900.4951        622.788          31.701  
R16  21714100.541      894721.1671      -1145.441          26.162  
R15  22590077.914     6897673.2091      -3895.385          24.940  
R17  21779848.325     1520150.7831       -803.849          29.143  
R03  20018912.695    -3441024.2611       1480.268          35.733  
R04  22576676.592    -5671185.4031       3956.032          28.106  
J01  37918223.460     1588249.9431       -984.965          33.158  
E012825137150.140     2641743.7751      -1853.123          21.533  
> 2018  4 30 12  6  6.9995649  0 18
G02  23284991.136    -4255801.4861        769.498          38.400  
G03  24438262.443     6643444.8841      -3639.127          14.493  
G06  21181408.016      484734.4651       -437.041          35.052  
G09  23385963.934    -2662546.5341       1478.292          38.253  
G17  21257391.914    -1322885.8671        558.728          37.842  
G19  21242205.327    -1986986.6721        967.023          36.090  
G23  24734440.003     -411394.9851        -27.952          21.405  
G28  21435191.925     4132125.1851      -2842.946          22.101  
G30  25718710.807     3146118.1671      -1989.266           7.000  
R02  21462687.990     3030261.1081      -2311.459          30.333  
R18  21401300.088     -930523.2341        624.692          29.942  
R16  21714305.299      895866.6311      -1147.430          26.229  
R15  22590878.061     6901568.3091      -3899.198          23.360  
R17  21780036.894     1520951.5421       -806.010          29.837  
R03  20018636.886    -3442504.0561       1478.423          36.980  
R04  22575948.396    -5675139.9581       3959.069          28.238  
J01  37918419.524     1589236.0041       -987.306          30.706  
E013124929971.790     2643623.6101      -1881.218          19.955  
> 2018  4 30 12  6  7.9995649  0 18
G02  23284814.858    -4256571.5440        771.653          35.472  
G03  24438955.563     6647080.1791      -3638.888          14.330  
G06  21181503.650      485173.3511       -435.014          32.906  
G09  23385681.230    -2664025.1880       1478.018          36.537  
G17  21257286.986    -1323444.0751        559.540          34.304  
G19  21242023.053    -1987951.2081        966.679          36.636  
G23  24734478.677     -411364.2671        -34.218          22.672  
G28  21435721.359     4134970.5721      -2839.897          22.995  
G30  25719089.745     3148108.5881      -1990.242           7.000  
R02  21463125.987     3032572.0941      -2312.498          30.192  
R18  21401178.073     -931152.8381        627.085          30.223  
R16  21714512.156      897012.6530      -1144.692          28.304  
R15  22591555.891     6905460.2341      -3893.948          26.494  
R17  21780160.708     1521751.6581       -802.042          29.444  
R03  20018374.268    -3443982.2151       1476.958          35.241  
R04  22575214.204    -5679098.3831       3961.364          25.705  
J01  37918594.004     1590229.3701       -986.765          28.716  
E013424722803.030     2645497.5441      -1871.233          20.790  
> 2018  4 30 12  6  8.9995649  0 18
G02  23284668.260    -4257341.1501        770.954          33.686  
G03  24439644.486     6650718.0361      -3638.797          14.112  
G06  21181586.393      485610.7251       -434.994          33.589  
G09  23385405.421    -2665504.3741       1478.891          34.326  
G17  21257183.258    -1324002.6431        556.798          37.081  
G19  21241830.287    -1988914.6731        961.177          34.267  
G23  24734487.071     -411329.7451        -25.393          20.618  
G28  21436266.082     4137811.1321      -2842.847          23.594  
G30  25719469.882     3150098.8241      -1990.242           7.000  
R02  21463572.678     3034883.8251      -2315.254          30.412  
R18  21401061.453     -931779.5451        628.048          30.709  
R16  21714736.401      898158.9650      -1145.679          28.838  
R15  22592324.559     6909351.4851      -3894.016          24.188  
R17  21780308.506     1522552.2971       -797.884          27.465  
R03  20018071.777    -3445458.9661       1477.889          33.720  
R04  22574453.031    -5683053.3481       3959.701          25.973  
J01  37918783.772     1591220.2141       -983.559          28.472  
E013724515597.400     2647382.4541      -1891.462          21.729  
> 2018  4 30 12  6  9.9995649  0 18
G02  23284538.449    -4258110.5870        770.118          36.364  
G03  24440376.280     6654359.2781      -3638.056          13.685  
G06  21181665.838      486047.7061       -437.864          34.674  
G09  23385113.123    -2666982.4011       1475.517          34.919  
G17  21257077.432    -1324561.5271        556.923          37.629  
G19  21241660.305    -1989880.3111        965.477          36.894  
G23  24734483.174     -411297.5571        -26.534          23.748  
G28  21436812.004     4140657.6771      -2841.591          25.160  
G30  25719848.819     3152089.2321      -1990.242           7.000  
R02  21464010.375     3037200.8321      -2317.476          28.507  
R18  21400936.440     -932407.2431        626.041          33.459  
R16  21714971.738      899306.6231      -1147.501          26.504  
R15  22592994.895     6913243.8211      -3895.525          24.063  
R17  21780463.199     1523351.1011       -798.049          30.460  
R03  20017823.249    -3446934.3221       1477.452          34.145  
R04  22573698.454    -5687012.9451       3961.209          27.002  
J01  37918969.344     1592205.8681       -983.431          34.048  
E014024308411.555     2649262.2171      -1881.111          20.414  
> 2018  4 30 12  6 10.9995649  0 18
G02  23284382.258    -4258880.5560        770.513          40.307  
G03  24441065.203     6657991.6301      -3637.383          13.854  
G06  21181743.184      486485.0820       -436.879          36.331  
G09  23384837.914    -2668460.9441       1479.760          36.465  
G17  21256967.408    -1325119.8461        559.342          39.223  
G19  21241465.739    -1990845.8780        965.677          37.568  
G23  24734487.071     -411265.6911        -26.092          25.733  
G28  21437330.645     4143501.8831      -2840.439          27.464  
G30  25720228.656     3154079.4691      -1990.242           7.000  
R02  21464406.101     3039514.1241      -2310.832          34.391  
R18  21400816.523     -933035.1581        627.728          34.739  
R16  21715153.712      900454.0640      -1146.232          30.948  
R15  22593769.859     6917136.3031      -3897.369          20.993  
R17  21780615.793     1524157.9001       -802.406          29.160  
R03  20017522.557    -3448411.9271       1478.394          36.819  
R04  22572979.851    -5690979.7381       3964.447          27.294  
J01  37919163.010     1593190.3270       -982.824          35.476  
E014324101233.500     2651135.1991      -1880.303          19.361  
> 2018  4 30 12  6 11.9995649  0 18
G02  23284249.749    -4259649.9251        773.446          35.668  
G03  24441748.430     6661630.8761      -3638.057          13.611  
G06  21181827.126      486923.1791       -438.842          34.977  
G09  23384560.606    -2669939.2001       1479.995          36.344  
G17  21256866.378    -1325678.1880        559.452          41.334  
G19  21241283.166    -1991811.3030        966.674          36.341  
G23  24734472.381     -411239.8691        -25.409          28.282  
G28  21437869.372     4146344.8451      -2842.972          31.566  
G30  25720608.793     3156069.8771      -1990.242           7.000  
R02  21464861.186     3041825.9451      -2314.969          32.971  
R18  21400705.300     -933662.7921        625.945          33.790  
R16  21715383.053      901601.9331      -1149.715          30.402  
R15  22594532.830     6921038.2331      -3895.362          22.090  
R17  21780770.786     1524962.0291       -804.430          30.566  
R03  20017249.447    -3449888.9241       1476.497          37.602  
R04  22572215.680    -5694949.5691       3962.262          26.591  
J01  37919345.883     1594174.7201       -983.989          35.838  
E014623894075.836     2653013.8151      -1891.492          19.178  
> 2018  4 30 12  6 12.9995649  0 18
G02  23284083.065    -4260420.3290        771.016          35.225  
G03  24442466.732     6665266.4261      -3637.535          13.182  
G06  21181913.766      487359.8141       -434.479          34.683  
G09  23384281.799    -2671417.0031       1474.753          36.290  
G17  21256761.450    -1326236.4311        557.552          38.718  
G19  21241106.288    -1992777.0950        967.075          38.884  
G23  24734502.960     -411212.9511        -27.239          28.507  
G28  21438403.602     4149189.0151      -2844.319          39.419  
G30  25720989.829     3158059.1501      -1990.242           7.000  
R02  21465289.889     3044141.2331      -2320.665          31.159  
R18  21400591.978     -934291.2901        630.113          36.698  
R16  21715616.591      902752.0121      -1151.719          26.379  
R15  22595202.867     6924936.2941      -3894.664          24.644  
R17  21780903.894     1525770.2001       -801.824          30.590  
R03  20016980.833    -3451365.4410       1476.585          37.840  
R04  22571506.072    -5698915.2511       3960.573          26.588  
J01  37919534.752     1595162.7791       -988.071          32.943  
