     3.03           OBSERVATION DATA    M: Mixed            RINEX VERSION / TYPE
Geo++ RINEX Logger  Geo++               20180417 123242 UTC PGM / RUN BY / DATE
************************************************************COMMENT
This file was generated by the Geo++ RINEX Logger App       COMMENT
for Android devices (Version 1.2.4). If you encounter       COMMENT
any issues, please send an email to android@geopp.de        COMMENT
Note: Tracking signals and phase shifts by best knowledge   COMMENT
************************************************************COMMENT
Geo++                                                       MARKER NAME
GEODETIC                                                    MARKER TYPE
RINEX Logger user   Geo++                                   OBSERVER / AGENCY
7EX0217A17003237    HUAWEI              VTR-L29             REC # / TYPE / VERS
7EX0217A17003237    VTR-L29                                 ANT # / TYPE
 -2418164.3490  5386095.5686  2405071.1455                  APPROX POSITION XYZ
        0.0000        0.0000        0.0000                  ANTENNA: DELTA H/E/N
G    4 C1C L1C D1C S1C                                      SYS / # / OBS TYPES
R    4 C1C L1C D1C S1C                                      SYS / # / OBS TYPES
E    4 C1B L1B D1B S1B                                      SYS / # / OBS TYPES
C    4 C2I L2I D2I S2I                                      SYS / # / OBS TYPES
J    4 C1C L1C D1C S1C                                      SYS / # / OBS TYPES
  2018     4    17    12    33    0.9997928     GPS         TIME OF FIRST OBS
G                                                           SYS / PHASE SHIFTS
R                                                           SYS / PHASE SHIFTS
E                                                           SYS / PHASE SHIFTS
C                                                           SYS / PHASE SHIFTS
J                                                           SYS / PHASE SHIFTS
                                                            END OF HEADER
> 2018  4 17 12 33 30.9997928  0 15
G02  23602925.235    -1123624.7760        938.092          27.395  
G06  21184669.459       36751.0131       -182.883          22.008  
G09  23934549.956    -1689159.0190       1580.657          27.538  
G17  21546448.204     -801746.8020        711.171          32.805  
G19  21627185.611    -1176575.8610       1060.713          37.630  
G30  25150517.759      372920.8711      -2589.279          16.662  
R26  21733179.633      392708.4161       -897.223          21.016  
R06  20720711.250    -1237456.8281       2580.251          18.749  
R09  23839529.837     3938124.5820      -4362.791          29.889  
R11  21648492.760     -684434.3540        219.739          27.489  
R05  21190401.191      926341.7930      -1319.698          36.856  
R21  21796999.751     -544890.3280        544.619          36.101  
J01  37714721.642     1002609.1720       -982.888          33.252  
J02  36847689.475     1018778.7541       -967.102          21.723  
C11  23405203.115     -654357.3680        675.258          30.829  
> 2018  4 17 12 33 31.9997928  0 14
G02  23602730.370    -1124562.3361        939.129          24.891  
G06  21184712.928       36933.3901       -184.304          21.447  
G17  21546318.694     -802457.8240        711.206          34.816  
G19  21626978.155    -1177636.5650       1061.131          37.039  
G30  25151017.813      375509.1461      -2588.552          13.602  
R26  21733299.550      393604.0731       -897.764          21.601  
R06  20720225.287    -1240038.8171       2578.347          18.695  
R09  23840362.361     3942487.8740      -4364.691          29.473  
R11  21648436.699     -684653.0990        217.242          25.866  
R05  21190653.916      927662.0680      -1321.085          36.918  
R21  21796893.625     -545435.1340        545.766          36.013  
J01  37714909.012     1003592.9110       -984.659          33.239  
J02  36847848.965     1019745.3561       -959.740          20.200  
C11  23405068.808     -655032.4400        675.827          33.131  
> 2018  4 17 12 33 32.9997928  0 15
G02  23602569.381    -1125496.8541        932.482          27.807  
G06  21184727.918       37117.2731       -183.894          19.864  
G17  21546180.789     -803169.8831        712.662          34.677  
G19  21626781.491    -1178699.2200       1063.483          39.465  
G28  20789310.060     1995642.5781      -2171.579          23.706  
G30  25151539.751      378101.2731      -2590.743          19.611  
R26  21733469.832      394504.8841       -894.445          20.718  
R06  20719744.120    -1242617.2571       2576.426          20.488  
R09  23841147.517     3946854.1290      -4365.894          28.413  
R11  21648376.741     -684870.1501        216.464          26.150  
R05  21190903.643      928984.6970      -1324.110          32.988  
R21  21796816.278     -545979.9701        550.333          32.516  
J01  37715090.986     1004578.3310       -986.983          36.314  
J02  36848066.914     1020706.0751       -969.582          22.910  
C11  23404943.495     -655710.2710        678.675          38.786  
> 2018  4 17 12 33 33.9997928  0 16
G02  23602395.202    -1126430.2001        931.552          29.025  
G06  21184764.793       37299.6841       -183.313          24.231  
G09  23933583.125    -1693890.3111       1575.012          31.934  
G17  21546040.786     -803882.7370        712.640          39.178  
G19  21626572.236    -1179763.7041       1064.099          37.320  
G28  20789756.151     1997809.1391      -2171.842          23.789  
G30  25152018.220      380691.9471      -2591.599          19.239  
R26  21733685.682      395402.8541       -890.629          21.361  
R06  20719260.255    -1245190.6691       2572.891          22.423  
R09  23841984.538     3951219.8981      -4367.912          26.509  
R11  21648296.396     -685088.1681        215.271          23.380  
R05  21191141.678      930307.8220      -1323.134          35.023  
R21  21796684.070     -546529.4140        550.079          35.910  
J01  37715281.054     1005563.5541       -984.051          37.190  
J02  36848235.397     1021667.3461       -967.886          25.080  
C11  23404811.286     -656389.5771        679.604          35.162  
> 2018  4 17 12 33 34.9997928  0 16
G02  23602192.842    -1127364.4231        937.240          26.121  
G06  21184785.178       37483.5721       -185.281          26.018  
G09  23933274.039    -1695463.4271       1575.145          32.529  
G17  21545904.980     -804596.1651        713.616          39.193  
G19  21626372.874    -1180828.5901       1064.351          36.012  
G28  20790170.464     1999988.9101      -2172.613          22.745  
G30  25152531.165      383279.0081      -2592.468          18.256  
R26  21733799.604      396301.0491       -902.008          23.137  
R06  20718788.681    -1247763.9231       2572.391          23.821  
R09  23842792.178     3955585.6521      -4365.443          25.684  
R11  21648303.291     -685307.2501        213.396          22.526  
R05  21191421.384      931629.9791      -1321.202          30.493  
R21  21796583.639     -547080.0730        549.495          38.876  
J01  37715461.529     1006549.6710       -985.630          37.134  
J02  36848386.193     1022631.1861       -969.381          24.189  
C11  23404686.273     -657069.7061        680.967          34.091  
> 2018  4 17 12 33 35.9997928  0 15
G02  23602037.849    -1128305.7961        937.402          29.560  
G06  21184824.451       37669.9231       -182.556          23.622  
G17  21545767.675     -805309.4680        713.654          40.260  
G19  21626167.216    -1181893.2850       1065.726          38.748  
G28  20790558.396     2002162.4901      -2171.280          23.578  
G30  25153039.613      385870.7381      -2592.068          18.754  
R26  21733971.684      397204.5061       -896.764          24.891  
R06  20718375.267    -1250336.5881       2570.752          22.288  
R09  23843652.883     3959953.7271      -4366.086          23.538  
R11  21648266.717     -685526.3311        214.123          22.428  
R05  21191606.656      932954.2261      -1325.984          27.810  
R21  21796484.708     -547631.1070        550.325          37.707  
J01  37715651.598     1007535.6961       -987.660          34.644  
J02  36848576.861     1023596.3551       -966.617          21.460  
C11  23404555.863     -657750.3371        682.208          31.322  
> 2018  4 17 12 33 36.9997928  0 15
G02  23601874.163    -1129237.0591        928.485          33.097  
G06  21184865.223       37852.9181       -184.130          24.865  
G17  21545635.767     -806022.1400        710.716          40.137  
G19  21625963.657    -1182957.5581       1063.281          36.982  
G28  20790969.711     2004336.5781      -2173.204          23.160  
G30  25153549.860      388468.7471      -2592.546          18.706  
R26  21734098.497      398106.2901       -896.868          24.625  
R06  20717792.471    -1252911.5511       2575.087          22.635  
R09  23844387.674     3964325.2961      -4367.866          22.844  
R11  21648234.039     -685740.3061        210.197          21.724  
R05  21191871.673      934278.8181      -1325.972          26.610  
R21  21796386.675     -548182.0580        549.702          33.898  
J01  37715840.467     1008522.4420       -986.748          37.295  
J02  36848772.626     1024568.6591       -968.380          21.880  
C11  23404420.057     -658430.2920        680.241          35.292  
> 2018  4 17 12 33 37.9997928  0 15
G02  23601676.899    -1130170.7571        932.261          30.731  
G06  21184914.989       38031.0751       -186.630          23.507  
G17  21545503.258     -806734.2691        711.027          35.753  
G19  21625762.196    -1184022.1070       1064.447          37.978  
G28  20791392.119     2006518.0761      -2177.634          23.565  
G30  25154039.421      391062.2261      -2591.377          14.502  
R26  21734278.972      399000.9161       -895.592          24.938  
R06  20717322.996    -1255486.2451       2570.134          24.046  
R09  23845196.814     3968693.0861      -4369.571          25.565  
R11  21648174.081     -685954.2751        211.762          22.082  
R05  21192159.173      935605.8971      -1327.030          25.790  
R21  21796274.553     -548733.2960        550.236          35.844  
J01  37716029.036     1009509.2000       -987.100          38.823  
J02  36848950.103     1025534.5731       -968.134          21.922  
C11  23404292.046     -659110.2090        679.625          35.582  
> 2018  4 17 12 33 38.9997928  0 16
G02  23601476.338    -1131105.1441        934.922          29.900  
G06  21184957.859       38220.6901       -188.114          24.642  
G09  23932100.052    -1701780.3541       1568.433          27.719  
G17  21545357.859     -807445.5631        712.414          38.967  
G19  21625567.331    -1185085.9601       1062.890          34.778  
G28  20791794.440     2008698.2731      -2179.517          27.724  
G30  25154540.974      393657.5671      -2590.225          13.351  
R26  21734424.971      399897.9161       -898.624          25.206  
R06  20716844.827    -1258055.8121       2568.437          23.678  
R09  23846019.144     3973060.8621      -4366.435          25.258  
R11  21648039.474     -686176.9121        216.859          20.988  
R05  21192378.921      936934.2211      -1327.417          29.321  
R21  21796177.420     -549284.0090        550.376          38.897  
J01  37716213.409     1010496.5750       -987.544          38.505  
J02  36849171.350     1026506.8171       -971.025          21.103  
C11  23404158.638     -659789.6660        679.455          35.522  
> 2018  4 17 12 33 39.9997928  0 15
G02  23601321.045    -1132037.3521        933.317          30.835  
G06  21184962.356       38408.3911       -188.035          23.876  
G17  21545227.150     -808157.7570        711.427          40.740  
G19  21625357.776    -1186148.2691       1060.793          33.756  
G28  20792202.458     2010878.7001      -2181.353          31.402  
G30  25155043.126      396250.7581      -2591.659          12.772  
R26  21734628.230      400796.7361       -895.797          23.892  
R06  20716381.647    -1260624.9681       2567.971          24.476  
R09  23846984.176     3977430.2821      -4369.090          21.499  
R11  21648088.640     -686397.1971        215.465          20.508  
R05  21192628.049      938263.6761      -1329.676          30.143  
R21  21796077.290     -549834.5680        549.623          38.696  
J01  37716405.876     1011484.3360       -988.215          39.678  
J02  36849375.808     1027473.4371       -964.630          22.539  
C11  23404027.029     -660469.1821        677.122          33.390  
> 2018  4 17 12 33 40.9997928  0 16
G02  23601118.086    -1132968.8341        934.254          29.235  
G06  21184975.247       38591.1521       -185.799          21.708  
G09  23931505.863    -1704925.5241       1582.019          26.658  
G17  21545096.440     -808869.8200        711.681          40.995  
G19  21625154.217    -1187212.6011       1063.686          34.198  
G28  20792611.075     2013059.9681      -2181.360          35.292  
G30  25155507.505      398844.1731      -2592.691          17.789  
R26  21734754.143      401690.5621       -894.716          24.246  
R06  20715889.088    -1263193.4711       2569.369          24.151  
R09  23847675.198     3981797.4981      -4368.408          20.658  
R11  21647985.811     -686617.6201        212.765          20.184  
R05  21192875.677      939593.8170      -1332.355          32.563  
R21  21795977.759     -550385.3800        550.012          35.825  
J01  37716589.948     1012472.1230       -988.550          39.977  
J02  36849544.291     1028436.0881       -959.976          23.761  
C11  23403900.517     -661148.7111        679.907          32.328  
> 2018  4 17 12 33 41.9997928  0 15
G02  23600971.787    -1133903.1581        935.737          30.297  
G06  21185016.918       38771.4531       -186.248          22.302  
G17  21544957.336     -809581.8250        710.473          39.174  
G19  21624956.954    -1188274.0851       1061.982          33.021  
G28  20793032.283     2015242.0130      -2182.525          37.267  
G30  25155990.170      401437.5461      -2592.505          19.932  
R26  21734931.020      402585.3021       -892.759          23.233  
R06  20715450.792    -1265761.5231       2569.521          22.888  
R09  23848473.845     3986160.6051      -4367.538          20.499  
R11  21647933.348     -686834.1341        209.968          22.499  
R05  21193126.004      940924.6031      -1334.478          31.933  
R21  21795865.037     -550936.1250        549.806          36.668  
J01  37716782.115     1013460.0220       -988.494          39.071  
J02  36849737.358     1029399.9971       -963.522          23.640  
C11  23403764.111     -661827.8160        678.760          32.355  
> 2018  4 17 12 33 42.9997928  0 17
G02  23600804.503    -1134832.2671        930.000          29.708  
G06  21185084.071       38954.3821       -188.126          21.512  
G09  23930892.788    -1708087.6371       1570.031          28.137  
G17  21544821.530     -810293.4610        710.914          40.623  
G19  21624749.497    -1189335.9431       1061.339          34.625  
G28  20793450.194     2017424.5691      -2182.842          33.608  
G30  25156487.526      404031.0411      -2593.743          14.601  
R26  21735136.078      403485.4081       -900.630          25.003  
R06  20714939.346    -1268328.5321       2563.367          22.651  
R09  23849349.239     3990524.8771      -4367.606          20.340  
R11  21647976.518     -687045.0141        210.003          21.611  
R05  21193382.027      942256.3681      -1333.006          31.266  
R21  21795765.506     -551486.5640        549.493          38.530  
J01  37716970.685     1014448.1650       -988.155          39.543  
J02  36849892.650     1030366.2741       -967.351          22.292  
C06  38606846.736    -1108671.4311       1169.827          15.006  
C11  23403634.901     -662509.2951        681.034          30.645  
> 2018  4 17 12 33 43.9997928  0 17
G02  23600594.648    -1135758.2491        933.563          27.980  
G06  21185083.472       39142.0721       -183.338          22.105  
G09  23930616.079    -1709659.2521       1566.874          28.501  
G17  21544687.523     -811004.8570        710.144          38.962  
G19  21624555.832    -1190396.1301       1063.984          32.927  
G28  20793864.807     2019607.5951      -2180.222          32.601  
G30  25156927.621      406628.5541      -2589.590          13.998  
R26  21735314.455      404379.3111       -899.047          23.997  
R06  20714470.171    -1270895.6551       2567.810          23.806  
R09  23850193.155     3994891.8081      -4367.756          18.072  
R11  21647844.009     -687254.4571        203.690          22.206  
R05  21193620.362      943589.2271      -1331.932          31.511  
R21  21795655.482     -552037.3640        551.161          38.869  
J01  37717155.956     1015436.2730       -988.401          39.867  
J02  36850112.698     1031330.1311       -964.477          23.314  
C06  38606628.487    -1109844.2311       1170.684          14.044  
C11  23403511.986     -663190.2851        676.312          31.649  
> 2018  4 17 12 33 44.9997928  0 17
G02  23600377.599    -1136691.8421        936.252          28.093  
G06  21185150.026       39329.1191       -184.838          22.782  
G09  23930297.999    -1711230.7481       1571.931          27.587  
G17  21544549.019     -811716.4680        711.419          39.311  
G19  21624351.673    -1191459.2471       1061.684          33.488  
G28  20794286.015     2021791.2041      -2181.391          29.797  
G30  25157379.708      409186.5111      -2590.798          13.138  
R26  21735511.718      405273.6111       -890.009          22.077  
R06  20714023.180    -1273464.3951       2569.469          21.208  
R09  23851020.582     3999259.0651      -4368.828          17.473  
R11  21647805.636     -687453.7091        207.209          21.062  
R05  21193869.489      944916.8661      -1331.627          29.991  
R21  21795569.441     -552588.1340        550.265          37.850  
J01  37717342.127     1016424.7700       -989.643          39.544  
J02  36850278.783     1032296.4931       -963.054          22.235  
C06  38606429.425    -1111009.4321       1170.403          16.497  
C11  23403375.580     -663865.9841        677.248          31.325  
> 2018  4 17 12 33 45.9997928  0 16
G02  23600210.614    -1137632.7701        934.412          28.469  
G06  21185205.188       39514.3061       -187.487          19.915  
G09  23929973.024    -1712801.5271       1572.748          29.860  
G17  21544411.414     -812427.9290        710.697          38.269  
G19  21624139.120    -1192518.7371       1055.580          31.506  
G28  20794706.924     2023975.4471      -2184.267          27.746  
R26  21735631.635      406165.3021       -891.661          22.163  
R06  20713488.350    -1276032.5391       2568.711          20.479  
R09  23851829.122     4003623.1851      -4368.824          16.551  
R11  21647817.028     -687663.1131        209.559          20.272  
R05  21194121.615      946249.8901      -1336.476          28.157  
R21  21795451.323     -553139.1280        550.878          38.458  
J01  37717531.296     1017413.2050       -989.169          37.988  
J02  36850486.239     1033259.4641       -964.165          24.591  
C06  38606206.080    -1112177.0001       1169.829          15.013  
C11  23403244.271     -664542.7841        678.778          32.071  
> 2018  4 17 12 33 46.9997928  0 17
G02  23600023.544    -1138570.0151        935.510          29.370  
G06  21185215.081       39701.1481       -189.023          21.978  
G09  23929709.507    -1714373.2401       1573.159          27.452  
G17  21544275.608     -813139.0491        712.818          37.604  
G19  21623938.859    -1193573.7581       1061.696          33.199  
G28  20795117.340     2026159.3601      -2184.212          25.782  
G30  25158464.358      414368.3551      -2589.635          12.240  
R26  21735786.028      407064.5001       -900.026          21.396  
R06  20712984.999    -1278597.8031       2566.146          21.588  
R09  23852674.537     4007993.4391      -4369.802          15.802  
R11  21647797.242     -687874.8241        207.864          19.502  
R05  21194371.642      947585.1661      -1336.171          29.660  
R21  21795348.494     -553690.4250        550.795          37.737  
J01  37717716.568     1018401.3510       -988.324          37.571  
J02  36850634.636     1034221.7221       -965.424          23.203  
C06  38605988.131    -1113346.6261       1170.891          14.071  
C11  23403116.560     -665222.4440        679.656          33.083  
> 2018  4 17 12 33 47.9997928  0 16
G02  23599888.637    -1139504.3611        932.706          29.194  
G06  21185265.446       39891.6321       -188.498          20.504  
G17  21544140.702     -813849.8220        710.228          35.268  
G19  21623736.799    -1194636.4171       1065.593          34.985  
G28  20795544.544     2028342.7221      -2182.978          24.783  
G30  25159006.682      416956.7061      -2586.754          11.563  
R26  21735941.321      407962.7831       -895.261          22.675  
R06  20712509.828    -1281162.7231       2567.976          20.303  
R09  23853528.646     4012360.7951      -4370.091          16.403  
R11  21647725.292     -688078.6801        206.202          21.464  
R05  21194620.170      948921.2051      -1335.731          30.512  
R21  21795249.563     -554241.8040        550.909          36.868  
J01  37717912.932     1019389.6530       -988.869          37.023  
J02  36850837.296     1035183.1361       -964.411          27.468  
C06  38605773.479    -1114517.6951       1168.951          16.061  
C11  23402984.651     -665902.1690        679.748          33.974  
> 2018  4 17 12 33 48.9997928  0 16
G02  23599706.363    -1140432.3601        933.666          29.845  
G06  21185294.826       40079.2681       -190.342          18.666  
G17  21544012.391     -814561.4301        711.176          35.999  
G19  21623541.034    -1195699.7071       1062.235          34.145  
G28  20795974.147     2030526.9281      -2184.723          24.249  
G30  25159466.564      419548.1621      -2590.067          10.703  
R26  21736150.576      408855.5061       -894.418          22.927  
R06  20712049.646    -1283727.1081       2568.702          19.698  
R09  23854363.868     4016728.1751      -4367.871          14.973  
R11  21647663.834     -688289.4781        206.588          22.479  
R05  21194892.381      950257.7181      -1336.477          29.815  
R21  21795154.229     -554793.5890        551.258          37.313  
J01  37718094.606     1020378.1531       -985.910          35.781  
J02  36851014.174     1036151.2181       -963.539          25.027  
C06  38605545.637    -1115681.8211       1169.725          15.569  
C11  23402853.342     -666582.2760        679.445          33.758  
> 2018  4 17 12 33 49.9997928  0 15
G02  23599537.280    -1141363.7931        931.461          30.236  
G06  21185296.624       40264.2821       -189.348          20.398  
G17  21543875.086     -815272.4631        713.989          32.578  
G19  21623331.479    -1196763.2321       1064.172          37.011  
G28  20796375.869     2032716.9891      -2186.797          24.384  
R26  21736276.789      409747.2761       -893.489          23.868  
R06  20711558.287    -1286291.9971       2565.839          20.613  
R09  23855190.995     4021095.8101      -4367.140          14.833  
R11  21647639.251     -688501.3641        206.165          22.462  
R05  21195112.129      951600.7031      -1337.463          29.143  
R21  21795044.804     -555345.5060        551.039          36.002  
J01  37718283.775     1021369.0931       -989.287          33.689  
J02  36851207.840     1037117.3931       -965.168          24.333  
C06  38605298.908    -1116857.4291       1170.416          17.570  
C11  23402723.831     -667262.5760        680.886          36.002  
> 2018  4 17 12 33 50.9997928  0 15
G02  23599337.319    -1142297.7461        934.151          31.222  
G06  21185368.275       40449.9061       -188.020          21.025  
G17  21543732.984     -815984.1281        712.019          35.307  
G19  21623129.119    -1197826.7101       1063.080          37.529  
G28  20796829.455     2034896.1501      -2185.027          22.726  
R26  21736435.079      410645.9161       -894.576          23.660  
R06  20711110.696    -1288849.3431       2562.371          21.950  
R09  23855977.351     4025490.1241      -4364.370          14.520  
R11  21647613.169     -688707.8961        202.591          22.385  
R05  21195383.741      952938.0571      -1338.332          30.344  
R21  21794939.877     -555897.8590        551.729          37.420  
J01  37718473.844     1022355.7761       -987.183          35.457  
J02  36851370.927     1038080.6421       -966.194          23.369  
C06  38605086.355    -1118026.1541       1171.346          15.211  
C11  23402591.623     -667943.1800        680.728          35.673  
> 2018  4 17 12 33 51.9997928  0 15
G02  23599209.008    -1143228.5651        931.665          30.849  
G06  21185382.965       40635.7631       -184.260          22.548  
G17  21543603.174     -816695.9630        710.970          39.546  
G19  21622927.359    -1198890.1761       1061.206          37.037  
G28  20797215.587     2037084.3701      -2183.115          21.249  
R26  21736648.232      411539.4641       -894.456          25.748  
R06  20710620.536    -1291410.6101       2566.775          23.123  
R09  23856807.476     4029854.3961      -4364.702          14.007  
R11  21647578.393     -688905.2161        202.201          22.298  
R05  21195625.374      954276.0551      -1340.047          33.491  
R21  21794837.048     -556450.2580        551.942          38.454  
J01  37718658.216     1023343.3500       -987.654          37.092  
J02  36851572.387     1039047.0391       -966.664          23.722  
C06  38604860.611    -1119192.1621       1170.437          16.150  
C11  23402464.211     -668623.7131        679.332          33.777  
> 2018  4 17 12 33 52.9997928  0 15
G02  23598998.553    -1144157.5671        930.743          33.584  
G06  21185419.239       40811.3661       -178.583          19.443  
G17  21543464.370     -817408.0930        712.425          40.074  
G19  21622728.297    -1199954.0420       1064.528          36.742  
G28  20797646.689     2039263.9471      -2186.088          18.504  
R26  21736825.709      412433.0971       -894.186          23.947  
R06  20710131.574    -1293974.7601       2567.406          21.880  
R09  23857584.538     4034218.8821      -4364.430          14.829  
R11  21647546.915     -689100.2621        199.859          19.779  
R05  21195887.692      955614.8880      -1339.081          34.324  
R21  21794731.821     -557003.1220        553.015          37.484  
J01  37718852.482     1024330.7140       -987.197          38.748  
J02  36851762.156     1040009.2591       -965.283          24.316  
C06  38604640.863    -1120363.0831       1170.563          14.375  
C11  23402325.107     -669305.3441        681.472          29.975  
> 2018  4 17 12 33 53.9997928  0 15
G02  23598811.183    -1145091.6411        935.971          32.821  
G06  21185459.412       40993.6501       -180.021          19.034  
G17  21543334.560     -818121.2420        712.657          39.340  
G19  21622525.937    -1201018.5270       1064.498          34.523  
G28  20798087.684     2041446.2491      -2185.451          19.258  
R26  21736960.915      413326.2841       -892.698          26.552  
R06  20709628.822    -1296539.3721       2565.821          21.228  
R09  23858367.596     4038584.2071      -4362.129          17.927  
R11  21647517.535     -689300.2461        199.021          21.442  
R05  21196124.528      956953.8480      -1339.492          34.343  
R21  21794633.789     -557559.0050        560.701          35.027  
J01  37719031.758     1025317.0260       -986.484          37.370  
J02  36851951.625     1040970.8951       -960.298          28.118  
C06  38604427.111    -1121533.8761       1172.662          16.940  
C11  23402200.394     -669982.0811        681.288          32.463  
> 2018  4 17 12 33 54.9997928  0 15
G02  23598643.299    -1146022.0891        931.284          36.046  
G06  21185492.089       41177.0441       -181.213          17.773  
G17  21543192.458     -818832.7421        710.869          36.958  
G19  21622322.977    -1202079.7551       1063.940          34.157  
G28  20798515.787     2043630.8981      -2185.139          19.806  
R26  21737104.516      414219.0991       -892.353          29.449  
R06  20709198.320    -1299108.1881       2561.077          23.269  
R09  23859195.922     4042942.8791      -4361.742          15.709  
R11  21647450.382     -689499.1411        200.896          22.731  
R05  21196378.752      958293.3350      -1340.047          34.351  
R21  21794523.166     -558114.2171        552.680          32.522  
J01  37719220.027     1026303.2981       -987.642          35.255  
J02  36852148.888     1041931.9921       -960.827          25.763  
C06  38604189.076    -1122702.2221       1176.730          21.266  
C11  23402071.183     -670663.9491        681.038          32.831  
> 2018  4 17 12 33 55.9997928  0 15
G02  23598450.832    -1146955.5401        935.492          33.527  
G06  21185533.760       41358.1981       -182.744          18.612  
G17  21543050.656     -819545.6411        711.996          34.321  
G19  21622117.320    -1203144.2000       1064.253          37.009  
G28  20798930.100     2045812.0921      -2185.523          16.723  
R26  21737277.496      415110.9511       -893.023          28.735  
R06  20708679.080    -1301671.7121       2561.253          24.816  
R09  23860023.949     4047299.0921      -4361.577          14.185  
R11  21647415.306     -689703.0571        203.519          22.948  
R05  21196634.475      959633.0690      -1339.630          35.246  
R21  21794426.033     -558668.8731        552.511          33.126  
J01  37719410.695     1027288.8751       -988.085          35.753  
J02  36852298.485     1042893.9031       -962.294          24.696  
C06  38603963.632    -1123873.7491       1169.436          17.528  
C11  23401940.174     -671351.5341        684.715          28.909  
> 2018  4 17 12 33 56.9997928  0 15
G02  23598312.328    -1147888.1691        932.178          32.501  
G06  21185577.230       41547.2381       -184.320          18.956  
G17  21542926.242     -820259.2760        714.200          37.890  
G19  21621914.360    -1204209.1220       1065.136          38.752  
G28  20799318.931     2047994.3091      -2187.334          18.520  
R26  21737450.176      416005.4701       -891.641          36.840  
R06  20708212.903    -1304235.1371       2563.253          27.494  
R09  23860928.123     4051660.1451      -4361.306          17.130  
R11  21647383.828     -689901.0361        198.455          25.119  
R05  21196883.903      960973.7000      -1340.693          36.515  
R21  21794316.309     -559223.6890        554.958          35.625  
J01  37719598.665     1028274.7501       -985.952          37.701  
J02  36852511.637     1043856.5811       -960.268          27.149  
C06  38603742.385    -1125048.4971       1170.767          14.786  
C11  23401811.563     -672035.5781        682.542          29.480  
> 2018  4 17 12 33 57.9997928  0 15
G02  23598115.365    -1148819.6661        931.512          31.430  
G06  21185624.297       41736.3071       -182.992          20.440  
G17  21542791.036     -820972.5480        713.062          37.953  
G19  21621709.902    -1205274.0290       1064.641          40.149  
G28  20799744.037     2050181.5711      -2185.793          18.634  
R26  21737611.765      416897.1081       -891.117          35.181  
R06  20707729.637    -1306798.3490       2562.979          28.595  
R09  23861712.380     4056025.8401      -4358.820          17.102  
R11  21647332.564     -690094.9971        199.011          25.319  
R05  21197133.030      962314.7880      -1342.150          36.314  
R21  21794224.272     -559778.5770        554.944          35.298  
J01  37719786.635     1029259.1391       -985.789          34.756  
J02  36852675.324     1044822.0301       -960.419          26.230  
C06  38603504.950    -1126221.5871       1176.082          18.630  
C11  23401675.157     -672717.8831        682.551          30.079  
> 2018  4 17 12 33 58.9997928  0 15
G02  23597949.879    -1149753.7921        930.638          35.918  
G06  21185600.914       41925.3391       -185.047          22.741  
G17  21542656.429     -821685.9910        712.415          38.606  
G19  21621512.638    -1206338.9810       1065.734          39.983  
G28  20800173.040     2052373.0511      -2184.362          18.619  
R26  21737774.852      417788.0011       -890.581          33.021  
R06  20707229.583    -1309360.9810       2561.897          28.560  
R09  23862390.811     4060378.8471      -4357.835          20.341  
R11  21647271.106     -690303.7051        202.782          22.894  
R05  21197387.554      963656.2900      -1342.208          34.962  
R21  21794116.047     -560333.4720        554.154          34.113  
J01  37719976.404     1030245.1191       -986.721          34.057  
J02  36852829.717     1045790.9051       -964.185          25.117  
C06  38603272.610    -1127400.4431       1174.871          17.717  
C11  23401544.148     -673400.7361        681.979          30.208  
> 2018  4 17 12 33 59.9997928  0 15
G02  23597774.201    -1150685.3091        931.201          39.757  
G06  21185639.287       42106.9281       -184.491          22.641  
G17  21542517.625     -822399.9030        714.061          39.647  
G19  21621309.679    -1207404.2730       1065.410          38.406  
G28  20800577.160     2054565.0861      -2183.843          18.268  
R26  21737951.429      418678.9961       -892.165          31.227  
R06  20706755.911    -1311923.5251       2562.412          28.681  
R09  23863208.345     4064734.7341      -4357.912          23.025  
R11  21647260.613     -690511.4491        194.915          23.552  
R05  21197634.283      964998.4230      -1343.571          35.159  
R21  21794009.921     -560889.1860        555.236          34.888  
J01  37720158.078     1031230.3111       -986.605          35.978  
J02  36853057.259     1046755.6361       -961.801          26.563  
C06  38603051.663    -1128572.2481       1177.332          17.708  
C11  23401411.040     -674084.6141        683.080          30.097  
> 2018  4 17 12 34  0.9997928  0 15
G02  23597586.531    -1151614.8740        928.149          37.281  
G06  21185672.564       42292.8551       -182.648          22.390  
G17  21542377.622     -823113.6350        712.765          38.690  
G19  21621103.122    -1208469.4360       1065.080          39.993  
G28  20800979.182     2056750.8331      -2182.974          17.905  
R26  21738143.297      419570.9091       -894.003          28.364  
R06  20706286.436    -1314485.5861       2560.412          26.981  
R09  23864046.265     4069095.1371      -4360.059          24.606  
R11  21647271.106     -690707.5711        194.646          22.851  
R05  21197885.509      966341.2300      -1344.670          35.737  
R21  21793902.295     -561445.0090        555.357          35.653  
J01  37720351.144     1032214.9961       -983.731          34.656  
J02  36853239.233     1047720.9181       -962.427          27.924  
C06  38602836.712    -1129745.6141       1178.320          17.805  
C11  23401279.731     -674768.1391        684.587          29.765  
> 2018  4 17 12 34  1.9997928  0 16
G02  23597405.756    -1152544.1770        928.565          38.267  
G06  21185697.147       42475.8301       -184.563          24.039  
G09  23925236.304    -1738017.4691       1576.718          29.267  
G17  21542246.913     -823826.9581        714.173          37.743  
G19  21620902.261    -1209534.2550       1064.587          41.227  
G28  20801414.780     2058935.9911      -2185.381          19.270  
R26  21738308.482      420466.9201       -892.976          25.980  
R06  20705799.273    -1317046.9571       2559.461          27.229  
R09  23864883.285     4073455.4960      -4360.819          28.207  
R11  21647234.831     -690901.6571        199.383          23.067  
R05  21198126.243      967685.1860      -1345.678          35.213  
R21  21793801.865     -562000.3301        550.865          33.122  
J01  37720530.720     1033196.7091       -987.739          33.625  
J02  36853420.308     1048691.4051       -965.355          24.317  
C06  38602616.065    -1130924.3961       1178.591          19.023  
C11  23401154.118     -675450.4951        683.503          31.421  
> 2018  4 17 12 34  2.9997928  0 16
G02  23597233.975    -1153479.1131        929.374          35.004  
G06  21185754.407       42658.4881       -183.944          23.793  
G09  23924913.427    -1739599.0181       1573.708          30.248  
G17  21542111.407     -824540.4390        711.774          37.674  
G19  21620699.901    -1210599.1500       1064.825          40.106  
G28  20801831.792     2061127.0031      -2186.086          16.887  
R26  21738443.089      421355.7681       -889.531          24.471  
R06  20705322.304    -1319608.0040       2560.386          27.311  
R09  23865663.045     4077815.1661      -4360.504          26.766  
R11  21647155.686     -691091.6811        193.329          28.996  
R05  21198384.064      969029.6910      -1346.418          35.928  
R21  21793693.640     -562556.0290        554.925          32.823  
J01  37720726.784     1034180.2151       -983.335          34.557  
J02  36853595.986     1049654.4941       -963.710          25.078  
C06  38602392.120    -1132106.0161       1179.541          17.112  
C11  23401023.409     -676134.0021        680.524          31.136  
> 2018  4 17 12 34  3.9997928  0 15
G02  23596995.640    -1154414.5091        933.919          33.581  
G06  21185758.305       42841.2941       -184.641          25.043  
G17  21541971.404     -825253.8821        714.203          36.028  
G19  21620501.139    -1211664.1770       1064.824          38.997  
G28  20802241.908     2063319.8031      -2184.240          16.851  
R26  21738657.740      422242.5591       -891.127          22.603  
R06  20704845.034    -1322168.5840       2560.122          28.076  
R09  23866500.066     4082175.2870      -4361.306          28.066  
R11  21647126.606     -691282.5411        192.702          26.700  
R05  21198637.389      970375.0490      -1347.118          33.935  
R21  21793573.123     -563111.9850        554.637          32.955  
J01  37720912.056     1035161.6941       -986.789          32.154  
J02  36853816.334     1050617.4501       -958.790          26.376  
C06  38602160.680    -1133287.2951       1178.787          21.530  
C11  23400888.502     -676817.2551        682.037          32.234  
> 2018  4 17 12 34  4.9997928  0 15
G02  23596869.127    -1155346.5971        931.045          34.428  
G06  21185815.265       43023.7931       -182.796          25.454  
G09  23924346.819    -1742749.8961       1579.577          27.465  
G17  21541838.595     -825967.5651        711.550          37.084  
G19  21620294.282    -1212730.0990       1069.301          36.362  
G28  20802653.822     2065505.9591      -2184.754          19.269  
R26  21738817.230      423132.5101       -892.636          23.667  
R06  20704359.670    -1324728.8701       2561.725          26.623  
R09  23867322.397     4086534.9410      -4359.937          29.902  
R11  21647098.426     -691474.2621        193.308          26.321  
R05  21198886.816      971721.1800      -1349.243          33.033  
R21  21793497.576     -563666.5731        548.760          30.347  
J01  37721095.829     1036146.2391       -986.782          32.711  
C06  38601925.643    -1134460.6161       1178.429          17.728  
C11  23400755.694     -677500.9290        683.016          33.016  
> 2018  4 17 12 34  5.9997928  0 15
G02  23596709.638    -1156275.7301        928.015          36.554  
G06  21185855.138       43208.3161       -184.667          25.932  
G09  23924006.855    -1744324.9031       1577.165          28.622  
G17  21541706.087     -826680.8661        714.693          38.518  
G19  21620106.312    -1213795.4591       1061.943          32.509  
G28  20803056.444     2067693.6221      -2184.464          17.709  
R26  21738956.034      424022.7481       -889.314          24.554  
R06  20703897.090    -1327288.9531       2562.579          25.588  
R09  23868139.931     4090894.0900      -4359.971          30.967  
R11  21647049.260     -691671.7431        193.532          27.290  
R05  21199145.237      973067.6621      -1346.335          31.765  
R21  21793389.051     -564221.6351        550.527          28.991  
J01  37721292.193     1037131.3421       -986.393          35.388  
C06  38601702.298    -1135640.9721       1178.373          18.733  
C11  23400625.884     -678184.8860        683.446          34.362  
> 2018  4 17 12 34  6.9997928  0 15
G02  23596513.274    -1157203.3880        923.881          33.759  
G06  21185865.331       43400.2051       -185.773          28.394  
G09  23923695.370    -1745899.5051       1573.470          30.383  
G17  21541564.285     -827394.2091        713.770          36.524  
G19  21619889.562    -1214852.4781       1063.419          34.521  
G28  20803476.153     2069878.1991      -2184.666          19.993  
R26  21739155.396      424918.0311       -890.294          22.946  
R06  20703362.261    -1329847.3981       2557.033          23.837  
R09  23868937.378     4095253.7691      -4359.577          27.066  
R11  21647001.892     -691864.1121        193.315          26.511  
R05  21199394.365      974415.2071      -1347.450          33.847  
R21  21793318.599     -564778.6211        555.370          26.515  
J01  37721473.567     1038116.2921       -984.596          32.791  
C06  38601490.045    -1136822.7091       1181.425          22.065  
C11  23400501.170     -678868.7210        682.271          32.776  
> 2018  4 17 12 34  7.9997928  0 16
G02  23596317.809    -1158136.4551        935.955          30.229  
G06  21185902.205       43584.5391       -183.373          30.675  
G09  23923434.251    -1747474.2621       1577.806          29.925  
G17  21541427.580     -828107.8761        712.740          34.474  
G19  21619691.399    -1215916.8780       1063.073          36.933  
G28  20803911.452     2072061.4591      -2187.276          19.334  
R26  21739313.686      425812.6081       -889.902          23.776  
R06  20702942.551    -1332405.9421       2556.447          24.119  
R09  23869799.582     4099616.1261      -4356.369          22.529  
R11  21646939.536     -692057.2321        192.845          25.507  
R05  21199632.700      975764.0300      -1350.350          35.135  
R21  21793206.177     -565327.8851        552.883          27.500  
J01  37721657.640     1039099.7251       -985.380          34.098  
J02  36854770.273     1054465.1011       -964.874          25.568  
C06  38601261.003    -1138008.8951       1182.305          18.856  
C11  23400365.364     -679552.5070        683.907          32.328  
> 2018  4 17 12 34  8.9997928  0 15
G02  23596166.414    -1159073.1681        928.062          30.248  
G06  21185939.379       43769.4230       -185.776          31.554  
G09  23923118.869    -1749048.6151       1577.639          29.369  
G17  21541292.074     -828820.5710        711.103          36.036  
G19  21619483.343    -1216980.9170       1063.040          35.833  
G28  20804303.281     2074251.8841      -2187.793          20.041  
R26  21739419.813      426701.8911       -890.214          23.708  
R06  20702401.126    -1334963.3491       2561.340          24.029  
R09  23870600.927     4103976.3131      -4357.765          22.564  
R11  21646938.636     -692240.9041        187.468          24.633  
R05  21199878.230      977113.8550      -1351.192          35.868  
R21  21793077.566     -565878.5851        552.989          28.426  
J01  37721847.708     1040086.1711       -987.751          35.848  
C06  38601028.664    -1139197.6401       1182.164          18.094  
C11  23400232.556     -680235.6380        682.244          32.597  
> 2018  4 17 12 34  9.9997928  0 16
G02  23595977.245    -1160005.2871        925.178          31.116  
G06  21185972.357       43954.3390       -185.198          33.609  
G09  23922853.853    -1750621.1211       1577.592          27.577  
G17  21541158.366     -829532.8950        711.454          39.228  
G19  21619280.084    -1218044.9950       1064.016          33.771  
G28  20804741.577     2076443.5791      -2188.478          20.126  
R26  21739634.764      427590.6051       -888.617          25.507  
R06  20701976.920    -1337519.4841       2559.942          24.082  
R09  23871441.545     4108335.8651      -4358.094          21.339  
R11  21646898.164     -692428.9091        188.566          23.812  
R05  21200154.039      978464.5840      -1351.135          35.923  
R21  21792966.943     -566434.8361        557.038          30.616  
J01  37722039.276     1041072.7450       -987.185          38.122  
J02  36855082.657     1056393.2801       -962.905          27.664  
C06  38600808.616    -1140378.1811       1182.590          17.687  
C11  23400100.647     -680919.1781        683.162          30.707  
> 2018  4 17 12 34 10.9997928  0 16
G02  23595789.275    -1160927.6231        928.718          29.366  
G06  21186015.826       44140.6880       -190.973          33.957  
G09  23922543.867    -1752197.1731       1577.845          27.975  
G17  21541021.661     -830245.4870        711.071          37.841  
G19  21619081.621    -1219108.5360       1060.902          35.733  
G28  20805158.289     2078639.4741      -2192.920          21.673  
R26  21739805.346      428483.9051       -893.192          23.519  
R06  20701478.065    -1340076.6311       2555.727          23.568  
R09  23872261.177     4112694.9991      -4360.688          19.183  
R11  21646866.386     -692623.1331        191.153          25.037  
R05  21200407.363      979815.9430      -1351.465          36.060  
R21  21792870.710     -566991.2821        557.378          31.686  
J01  37722222.149     1042058.7991       -985.227          36.774  
J02  36855281.420     1057357.6181       -964.346          27.192  
C06  38600574.478    -1141564.0091       1180.398          16.271  
C11  23399972.336     -681602.4921        682.322          31.611  
> 2018  4 17 12 34 11.9997928  0 16
G02  23595630.985    -1161854.0301        930.484          31.038  
G06  21186043.707       44332.8251       -186.928          31.265  
G09  23922201.205    -1753775.5491       1572.392          32.466  
G17  21540887.054     -830957.2680        710.698          36.049  
G19  21618871.767    -1220170.8791       1060.356          33.191  
G28  20805577.099     2080835.6021      -2195.142          18.839  
R26  21739938.154      429374.5091       -890.997          24.708  
R06  20701023.280    -1342634.9561       2555.838          22.390  
R09  23873008.860     4117054.4110      -4359.266          25.259  
R11  21646853.495     -692812.6571        186.264          31.066  
R05  21200656.791      981168.7701      -1351.302          33.094  
R21  21792766.082     -567546.7301        555.619          32.090  
J01  37722417.314     1043045.5940       -986.843          36.504  
J02  36855460.995     1058322.3671       -966.575          25.288  
C06  38600349.934    -1142739.4741       1180.737          15.082  
C11  23399836.830     -682285.2901        680.977          31.024  
> 2018  4 17 12 34 12.9997928  0 16
G02  23595469.996    -1162779.9701        926.787          31.496  
G06  21186080.582       44521.9841       -187.331          32.031  
G09  23921900.513    -1755348.6951       1575.782          33.027  
G17  21540759.942     -831668.7380        709.420          35.705  
G19  21618676.901    -1221233.8751       1063.964          34.831  
G23  24857176.835      -64564.4440        396.381          26.555  
G28  20806004.303     2083034.7561      -2193.596          18.339  
R26  21740134.818      430267.6451       -890.752          24.815  
R06  20700538.216    -1345190.4491       2556.669          23.337  
R09  23873860.870     4121413.6481      -4358.275          25.682  
R11  21646794.436     -693000.0501        184.068          30.041  
R05  21200911.614      982522.6601      -1352.401          32.262  
R21  21792657.557     -568102.2080        554.750          34.563  
J01  37722604.085     1044032.5690       -987.223          35.993  
C06  38600126.289    -1143913.9181       1180.451          19.030  
C11  23399708.219     -682968.9451        684.450          28.686  
> 2018  4 17 12 34 13.9997928  0 16
G02  23595265.238    -1163707.4561        925.808          28.767  
G06  21186122.253       44709.6181       -187.612          31.805  
G09  23921614.811    -1756922.2321       1578.394          32.078  
G17  21540613.344     -832379.9000        710.506          36.891  
G19  21618473.342    -1222296.5760       1063.378          35.574  
G23  24857113.878      -64962.7311        396.504          24.025  
G28  20806410.522     2085233.1501      -2192.785          18.941  
R26  21740279.917      431161.0941       -895.992          25.461  
R06  20700039.361    -1347743.2061       2554.388          25.534  
R09  23874674.507     4125772.9210      -4358.923          29.314  
R11  21646797.734     -693183.5471        181.796          26.597  
R05  21201166.138      983877.1551      -1354.800          33.953  
R21  21792561.923     -568656.9191        556.424          32.943  
J01  37722786.358     1045020.0830       -988.231          36.431  
C06  38599895.448    -1145096.3111       1180.917          15.756  
C11  23399582.006     -683651.1961        683.867          27.911  
> 2018  4 17 12 34 14.9997928  0 16
G02  23595059.580    -1164641.5131        932.356          24.977  
G06  21186149.234       44897.2471       -188.006          33.714  
G09  23921314.419    -1758494.6601       1573.497          31.782  
G17  21540492.228     -833090.5690        708.822          32.685  
G19  21618270.083    -1223358.8100       1062.580          35.318  
G23  24857088.396      -65360.9881        396.100          21.397  
G28  20806834.128     2087431.3251      -2195.034          18.517  
R26  21740474.483      432056.1141       -895.833          25.493  
R06  20699603.463    -1350292.4701       2552.577          23.396  
R09  23875499.536     4130131.5161      -4358.952          26.622  
R11  21646741.673     -693362.1681        184.187          27.510  
R05  21201418.863      985232.9871      -1356.315          32.777  
R21  21792451.000     -569210.5471        554.611          31.872  
J01  37722977.026     1046007.1000       -985.135          36.405  
C06  38599669.105    -1146284.5391       1181.344          14.129  
C11  23399446.800     -684333.3290        681.328          33.380  
> 2018  4 17 12 34 15.9997928  0 16
G02  23594932.768    -1165568.0991        926.923          23.975  
G06  21186189.706       45084.9740       -188.337          34.756  
G09  23921023.620    -1760067.5521       1573.660          32.319  
G17  21540349.227     -833801.9791        712.467          30.700  
G19  21618073.119    -1224421.1420       1061.713          37.648  
G23  24857000.257      -65757.2191        396.681          20.073  
G28  20807237.349     2089630.1751      -2194.708          19.827  
R26  21740626.477      432952.3531       -891.905          25.712  
R06  20699152.275    -1352848.4801       2554.016          21.591  
R09  23876254.113     4134493.9641      -4358.583          23.045  
R11  21646643.640     -693541.9111        187.089          23.934  
R05  21201675.785      986589.5180      -1356.885          32.932  
R21  21792345.473     -569765.8100        554.532          36.964  
J01  37723165.896     1046992.3701       -990.876          32.405  
C06  38599444.561    -1147469.7921       1178.799          12.939  
C11  23399312.193     -685021.7961        681.474          30.672  
> 2018  4 17 12 34 16.9997928  0 16
G02  23594725.611    -1166497.2861        923.737          22.738  
G06  21186222.084       45274.6611       -189.718          31.706  
G09  23920694.448    -1761640.4591       1574.698          33.836  
G17  21540202.628     -834512.8901        709.852          33.535  
G19  21617868.961    -1225483.2200       1061.055          35.827  
G23  24856934.602      -66152.6051        394.632          23.128  
G28  20807629.778     2091827.0791      -2194.824          18.765  
R26  21740780.271      433843.3601       -892.707          26.472  
R06  20698600.957    -1355405.2721       2548.972          20.531  
R09  23877229.638     4138846.9211      -4357.347          20.311  
R11  21646649.936     -693722.2811        183.243          20.732  
R05  21201915.020      987946.9421      -1355.371          32.325  
R21  21792242.644     -570321.2300        555.216          37.583  
J01  37723352.067     1047979.7960       -987.938          36.959  
C06  38599211.622    -1148646.4251       1177.754          12.840  
C11  23399182.383     -685704.7471        683.276          26.779  
> 2018  4 17 12 34 17.9997928  0 15
G02  23594508.861    -1167422.0431        928.070          22.823  
G06  21186255.960       45462.3470       -187.894          36.593  
G09  23920408.746    -1763212.7181       1574.826          33.087  
G17  21540072.518     -835223.9181        710.550          36.433  
G19  21617671.997    -1226545.4091       1060.202          32.885  
G23  24856870.447      -66547.5541        391.944          23.601  
G28  20808059.980     2094018.3011      -2194.364          18.846  
R26  21740990.426      434737.6791       -893.382          23.594  
R06  20698117.691    -1357956.0771       2552.285          21.869  
R09  23877922.758     4143203.2371      -4358.517          21.438  
R11  21646580.384     -693903.6281        180.831          25.520  
R05  21202193.827      989305.0571      -1357.070          30.554  
R21  21792144.912     -570877.1161        556.335          33.551  
J01  37723539.737     1048968.1371       -986.480          36.602  
C11  23399046.577     -686387.7071        684.079          29.564  
> 2018  4 17 12 34 18.9997928  0 15
G02  23594359.265    -1168352.0001        932.423          25.260  
G06  21186293.134       45650.1830       -187.609          38.000  
G09  23920107.154    -1764785.6621       1574.155          34.227  
G17  21539944.807     -835933.7461        707.286          34.074  
G19  21617473.834    -1227601.9281       1059.735          29.311  
G23  24856799.096      -66942.9931        396.313          20.408  
G28  20808482.387     2096211.1821      -2190.000          20.348  
R26  21741127.431      435639.7211       -894.267          22.987  
R06  20697672.799    -1360508.0831       2557.729          23.306  
R09  23878750.185     4147562.9441      -4361.968          20.992  
R11  21646543.510     -694084.5511        180.692          24.831  
R05  21202419.570      990663.4151      -1359.392          29.112  
R21  21792052.876     -571431.1431        561.255          31.091  
J01  37723729.505     1049955.4300       -987.026          39.235  
C11  23398917.666     -687071.1291        685.086          29.067  
> 2018  4 17 12 34 19.9997928  0 15
G02  23594228.555    -1169283.3051        925.704          23.416  
G06  21186324.912       45837.7690       -187.417          39.730  
G09  23919911.990    -1766368.1761       1584.697          31.887  
G17  21539804.204     -836645.0551        710.350          34.629  
G19  21617257.684    -1228664.5931       1063.275          35.301  
G23  24856673.783      -67334.0201        397.609          22.934  
G28  20808897.300     2098398.2261      -2191.193          19.401  
R26  21741347.778      436531.4901       -891.217          22.335  
R06  20697218.014    -1363058.6621       2554.653          21.915  
R09  23879618.684     4151925.0561      -4365.617          19.533  
R11  21646529.420     -694272.0731        179.657          23.363  
R05  21202679.191      992023.1691      -1358.796          33.423  
R21  21791927.862     -571983.4021        554.362          31.295  
J01  37723911.779     1050942.6621       -986.295          35.200  
C11  23398790.255     -687754.2901        683.808          29.766  
> 2018  4 17 12 34 20.9997928  0 15
G02  23594014.204    -1170208.9661        924.550          21.692  
G06  21186365.984       46025.6190       -188.265          38.686  
G09  23919623.889    -1767956.3031       1582.504          32.328  
G17  21539672.895     -837352.1181        712.462          32.477  
G19  21617060.720    -1229727.5280       1063.446          36.699  
G23  24856621.919      -67724.5981        395.184          20.866  
G28  20809290.028     2100589.3631      -2193.231          19.555  
R26  21741509.966      437429.4981       -891.283          21.042  
R06  20696733.849    -1365607.1241       2550.282          20.749  
R09  23880454.805     4156290.2111      -4364.210          15.619  
R11  21646497.642     -694453.8381        180.651          22.113  
R05  21202948.404      993383.6741      -1358.810          31.819  
R21  21791814.841     -572540.5651        553.503          31.657  
J01  37724103.946     1051929.8911       -986.918          36.117  
C11  23398656.847     -688437.4661        682.263          27.477  
> 2018  4 17 12 34 21.9997928  0 16
G02  23593801.351    -1171136.0101        933.553          19.369  
G06  21186401.659       46213.6620       -188.329          38.510  
G09  23919207.477    -1769540.4181       1574.562          31.188  
G17  21539533.491     -838060.4571        712.068          33.412  
G19  21616857.461    -1230790.4320       1063.350          35.768  
G23  24856540.975      -68119.4921        389.970          16.988  
G28  20809701.044     2102788.7241      -2195.555          17.465  
R26  21741593.908      438321.7391       -890.894          20.735  
R06  20696247.886    -1368158.0441       2547.715          17.891  
R09  23881488.190     4160658.5681      -4363.179          10.432  
R11  21646425.991     -694633.0011        178.814          21.576  
R05  21203214.620      994740.6011      -1361.554          28.640  
R21  21791726.102     -573090.3121        555.003          32.666  
J01  37724289.818     1052917.0081       -985.775          36.168  
C06  38598088.899    -1154489.4941       1172.195          11.564  
C11  23398526.737     -689121.3241        684.886          30.520  
> 2018  4 17 12 34 22.9997928  0 15
G02  23593601.689    -1172073.9241        931.714          22.261  
G06  21186433.437       46401.8001       -188.388          37.989  
G09  23918909.184    -1771118.2801       1572.326          32.228  
G17  21539404.281     -838772.1741        710.161          37.086  
G19  21616656.600    -1231852.2061       1062.503          35.199  
G23  24856487.612      -68514.7291        391.289          16.917  
G28  20810124.051     2104991.7921      -2196.757          16.577  
R26  21741770.186      439212.2411       -890.537          21.692  
R06  20695782.608    -1370712.9921       2548.725          18.946  
R09  23882157.626     4165024.0331      -4359.754          12.539  
R11  21646467.362     -694810.6001        179.219          20.465  
R05  21203480.236      996099.7121      -1362.370          28.164  
R21  21791631.368     -573647.4851        558.019          33.657  
J01  37724484.982     1053904.6751       -985.954          36.643  
C11  23398397.826     -689805.1381        684.936          30.571  
> 2018  4 17 12 34 23.9997928  0 17
G02  23593421.214    -1173007.9181        931.167          25.474  
G06  21186476.008       46590.9000       -188.683          38.054  
